plant_code,name,state,lat,lon,ba,nameplate_MW_total,nameplate_MW_peaker,nameplate_MW_ccgt,n_units,cf_ac,cf_dc,developable_area_mi2_10km_excl_forest,developable_MW_10km_excl_forest,developable_area_mi2_10km_incl_forest,developable_MW_10km_incl_forest,developable_area_mi2_5km_excl_forest,developable_MW_5km_excl_forest,developable_area_mi2_5km_incl_forest,developable_MW_5km_incl_forest
62949,Guernsey Power Station,OH,39.9364,-81.5354,PJM,2055.0,0.0,2055.0,3,0.1783867371329704,0.1372205670253619,21.280059078282754,1945.6054014429944,40.44215476588092,3697.5684357376836,6.3038513323066585,576.3521218108945,10.816729191998327,988.9580975541327
59913,Greensville County Power Station,VA,36.718236,-77.649559,PJM,1773.3,0.0,1773.3,4,0.2102586119023634,0.1617373937710488,36.25105444511853,3314.3821206965504,101.25532968797226,9257.63014290032,9.863211301261904,901.7793189725169,25.289073621076533,2312.143873926997
2406,PSEG Linden Generating Station,NJ,40.6217,-74.2072,PJM,1740.0,384.4,1355.6,10,0.1948787606016266,0.1499067389243282,1.6161850254428238,147.76548804048673,4.276583338663692,391.0019052492518,0.5518172049888636,50.45185874183895,0.8982666718490001,82.12723856905143
55199,Elwood Energy LLC,IL,41.4388,-88.1236,PJM,1728.0,1728.0,0.0,9,0.196745311091752,0.1513425469936554,37.53468968140874,3431.7430565859418,40.525205340183405,3705.1616311024823,10.297923721564842,941.5244545430712,11.487041149443868,1050.2437622348677
60357,Lackawanna Energy Center,PA,41.471389,-75.544167,PJM,1498.5,0.0,1498.5,3,0.1722717560658029,0.1325167354352329,7.522158083371492,687.7401676225363,33.75884223215875,3086.5227183687994,0.854830179012975,78.15590208118627,5.674195932155638,518.7836280828011
55939,Warren County,VA,38.971667,-78.177222,PJM,1472.2,0.0,1472.2,4,0.1973518537237092,0.151809118249007,25.785292115235283,2357.5124219643685,43.58556687943839,3984.966114691509,6.875823069971437,628.6466806831028,11.661482104673345,1066.1926495701343
58260,Brunswick County Power Station,VA,36.765,-77.713889,PJM,1472.2,0.0,1472.2,4,0.2039219354247803,0.156863027249831,35.825376815325484,3275.4630231154724,103.32672915833663,9447.015237333633,8.26440087295349,755.6023655271761,25.99309229696283,2376.5112957223155
55524,York Energy Center,PA,39.7375,-76.306666,PJM,1449.4,0.0,1449.4,7,0.2020913536386663,0.1554548874143587,36.038736868136034,3294.9702279438657,49.67675314281987,4541.874573057816,8.889538877849564,812.7578402605315,12.191059825330163,1114.6111840301862
55736,Hanging Rock Energy Facility,OH,38.5731,-82.7833,PJM,1429.8000000000002,0.0,1429.8000000000002,6,0.1828371130569148,0.1406439331207037,13.457667956428656,1230.415356016334,22.601223444383294,2066.397572057901,4.160173537863145,380.3587234617732,6.6506482911094835,608.0592723300099
2398,Bergen Generating Station,NJ,40.8375,-74.0244,PJM,1400.8,0.0,1400.8,8,0.1975534997434657,0.1519642305718967,0.37633377393132195,34.407659330863716,0.8287682833113599,75.77310018846718,0.07054086436570485,6.449450456293014,0.11884224439936482,10.865576630799067
55298,Fairless Energy Center,PA,40.1475,-74.7411,PJM,1338.0,0.0,1338.0,6,0.1973039015502958,0.151772231961766,20.983995943112408,1918.5367719417056,28.956851076150496,2647.483526962331,2.749356250549048,251.3697143359129,4.09936244789271,374.798852378762
52019,Doswell Energy Center,VA,37.820805,-77.446246,PJM,1313.0,561.0,752.0,9,0.1997440146345311,0.1536492420265624,28.43040078297787,2599.350928729405,73.76524210190867,6744.2507064602205,7.485323937446543,684.3724742808266,18.160276416828083,1660.3681295385672
63931,CPV Three Rivers Energy Center,IL,41.372222,-88.284444,PJM,1300.0,0.0,1300.0,2,0.1921312599247029,0.1477932768651561,45.05302535341067,4119.133746597547,57.338950479094706,5242.41832951723,8.425637134360816,770.3439665701317,10.027574990153422,916.8068562425984
62926,"Jackson Generation, LLC",IL,41.438536,-88.110626,PJM,1288.6,0.0,1288.6,2,0.1957955844223024,0.1506119880171557,39.09805593156296,3574.6793994571844,41.77096395472061,3819.059561574455,13.21755102403111,1208.4618079114157,14.323965369550342,1309.619690930317
55131,Kendall County Generation Facility,IL,41.4797,-88.2581,PJM,1256.0,0.0,1256.0,8,0.1994728341643485,0.1534406416648835,61.22182544669267,5597.424040840472,64.97786585520943,5940.833449619147,18.39483347814262,1681.8133465730393,19.29866002107463,1764.4489162125376
55502,"Lawrenceburg Power, LLC",IN,39.0911,-84.8669,PJM,1232.0,0.0,1232.0,6,0.1898913649312913,0.1460702807163779,22.69852118833599,2075.293365790719,39.30689858911857,3593.77358529084,4.485425996219301,410.0960910829075,7.634050488917093,697.970330415277
60356,South Field Energy,OH,40.63534,-80.678245,PJM,1210.4,0.0,1210.4,4,0.1785110739907774,0.1373162107621365,12.654614076876223,1156.9932870286832,30.272803063110715,2767.7991371986936,4.458321624689622,407.61797711447963,9.669310797241888,884.0512728906867
60589,CPV Fairview Energy Center,PA,40.412,-78.855,PJM,1197.0,0.0,1197.0,3,0.1712056261400532,0.1316966354923486,8.403745141971457,768.3424129802474,34.39197255173665,3144.408919015922,2.298311708939763,210.13135624592115,9.011161057790433,823.8775824265538
60368,Hummel Station LLC,PA,40.839014,-76.825517,PJM,1194.4,0.0,1194.4,4,0.1840271158715571,0.1415593199011978,30.954929746607654,2830.165005404128,40.80389387821934,3730.641726008625,5.234271132712375,478.5619321337028,7.62675315812064,697.3031458853155
55297,New Covert Generating Facility,MI,42.32238,-86.29368,PJM,1176.0,0.0,1176.0,6,0.1883325575093557,0.1448711980841198,21.747088249255697,1988.3052113605206,41.07841251294302,3755.7405726119327,4.047586148432168,370.0650192852267,10.6791223826938,976.3769035605759
55460,Indeck Niles Energy Center,MI,41.862114,-86.221394,PJM,1174.4,0.0,1174.4,3,0.1880817041401602,0.1446782339539694,57.052964610262315,5216.271050081125,77.19081767292896,7057.4461872392185,13.461142875855538,1230.7330629353633,17.362434916415975,1587.4226209294602
55690,Bethlehem Power Plant,PA,40.6175,-75.3147,PJM,1153.0,0.0,1153.0,8,0.1905029107085935,0.1465407005450719,19.841442435553603,1814.0747369649007,31.689180221507822,2897.2964773950007,3.09094083021155,282.60030447648455,6.0074407051936225,549.2517216177025
55198,Riverside Generating LLC,KY,38.191661,-82.604586,PJM,1150.0,1150.0,0.0,5,0.1865974179366376,0.1435364753358751,4.541372198992102,415.2111724792778,11.979784724175737,1095.29460335321,1.1130166924303084,101.76152616505675,3.07738864444671,281.3612474922706
60464,Tenaska Westmoreland Generating Station,PA,40.175249,-79.696665,PJM,1134.0,0.0,1134.0,3,0.1770631101341212,0.1362023924108625,23.20134202940582,2121.265556974246,37.53121476198186,3431.425349666912,6.00987314879244,549.4741164610231,9.881975866167066,903.4949363352745
59220,Wildcat Point Generation Facility,MD,39.719364,-76.161625,PJM,1113.6,0.0,1113.6,3,0.2034933459919951,0.1565333430707655,42.59764728637583,3894.6420376115043,59.9131707905289,5477.77561513407,11.103062552773405,1015.1371476821398,16.33559622577234,1493.5402263563278
59906,Moxie Freedom Generation Plant,PA,41.113056,-76.158056,PJM,1105.0,0.0,1105.0,2,0.1788016940049349,0.1375397646191807,19.680206174146274,1799.3331359219449,42.9903131816135,3930.5429194618055,3.628510865550197,331.7495648503037,9.860778857663085,901.5569241291962
7153,Hay Road,DE,39.7436,-75.5072,PJM,1098.2,0.0,1098.2,8,0.1999599993011823,0.1538153840778326,10.448735224691523,955.3129348289391,14.913311704349532,1363.5027843976713,1.3878828190966757,126.89214346026748,1.9525572259650026,178.51951780251449
55279,Aurora,IL,41.8151,-88.2265,PJM,1086.2,1086.2,0.0,10,0.1948354957912065,0.1498734583009281,12.975349139977434,1186.3176356550796,17.84822865229408,1631.838048209744,5.551531276386703,507.5685738410699,7.565942068150205,691.7432748023044
59764,Oregon Clean Energy Center,OH,41.667928,-83.443664,PJM,1060.0,0.0,1060.0,3,0.1884140170368299,0.1449338592590999,34.48440540849171,3152.859923062099,36.34244482604552,3322.7378126670187,9.148072883209585,836.3952350363047,9.687380378261674,885.7033488696386
54,J K Smith,KY,37.8833,-84.1017,PJM,1055.0,1055.0,0.0,9,0.1993336869107553,0.1533336053159656,26.00177959553003,2377.3055630198883,36.17182628218562,3307.138402942685,6.290646638484507,575.1448355185834,9.04869018760076,827.3088171520694
61028,Hickory Run Energy Station,PA,40.994444,-80.43,PJM,1033.7,0.0,1033.7,3,0.1720584637548518,0.1323526644268091,33.74529004639391,3085.2836613845857,65.20165066630064,5961.293775204629,7.707371288824303,704.6739464067933,15.92764068505639,1456.2414340622984
55439,Tenaska Virginia Generating Station,VA,37.8667,-78.3813,PJM,1011.4,0.0,1011.4,4,0.2010454543679576,0.1546503495138136,23.888333600100392,2184.076214866321,69.50811831203552,6355.027959957532,6.231920500170201,569.7755885869897,20.516619280196778,1875.8051913322765
55401,Rolling Hills Generating,OH,39.0839,-82.3328,PJM,977.5,977.5,0.0,5,0.180732958319688,0.1390253525536062,14.215547883431624,1299.7072350566054,33.05725599987127,3022.3776914168016,4.688013798806523,428.6184044623106,9.81351995345749,897.236110030399
60376,"Clean Energy Future-Lordstown, LLC",OH,41.14889,-80.85162,PJM,962.0,0.0,962.0,3,0.1751083269246571,0.134698713018967,32.30806337143551,2953.8800796741034,73.64605236556662,6733.353359137518,9.095601599863667,831.5978605589637,21.306468465927058,1948.0199740276164
55503,"Waterford Power, LLC",OH,39.5333,-81.7178,PJM,921.6,0.0,921.6,4,0.1834239254530605,0.141095327271585,23.934897520420613,2188.333487581313,36.10997271638712,3301.4832197839646,5.999100898569106,548.4892250120324,8.866604409632142,810.6609745949386
55976,Hunterstown Power Plant,PA,39.8725,-77.1672,PJM,898.0,0.0,898.0,4,0.1999670896367679,0.1538208381821292,65.63914302214508,6001.293076310406,84.95622011618218,7767.425839193798,18.537305174644782,1694.839330253237,24.04748490985159,2198.6271917578592
7839,Ladysmith,VA,38.0722,-77.5133,PJM,892.5,892.5,0.0,5,0.1985605565634254,0.1527388896641734,26.209579777257577,2396.3044367778352,80.97465743686078,7403.397251370127,8.20080984744155,749.7883289089416,23.056785381247526,2108.0489491426306
58426,Hamilton Patriot Generation Plant,PA,41.180833,-76.839167,PJM,870.0,0.0,870.0,2,0.1790513456048088,0.1377318043113914,41.96521195068331,3836.819378348188,57.82335424720206,5286.706674029902,7.6535100377076315,699.7494891618405,11.773722002161634,1076.454583054778
58420,Hamilton Liberty,PA,41.7675,-76.39,PJM,870.0,0.0,870.0,2,0.1793785015660433,0.1379834627431102,26.53517972755642,2426.0735750908725,42.877725792182524,3920.2492152852587,6.865745803633479,627.7253306179181,10.14224733124053,927.2911845705626
55801,Marcus Hook Energy LP,PA,39.807038,-75.421606,PJM,836.0999999999999,0.0,836.0999999999999,4,0.1973805775172895,0.1518312134748381,11.624995450691083,1062.8567269203274,18.481011479929293,1689.6924781649636,1.7798537304489666,162.72948392676264,2.9109400038990616,266.1430860707713
59773,Carroll County Energy,OH,40.60441,-81.05918,PJM,832.3,0.0,832.3,3,0.1791888923213329,0.1378376094779484,30.88404139029926,2823.683784255932,49.029028161649066,4482.654003350771,7.561772164837946,691.3620264994693,12.270635480205762,1121.8866724759553
60302,Keys Energy Center,MD,38.695519,-76.827785,PJM,830.6,0.0,830.6,3,0.2011869848660598,0.1547592191277383,19.080782573009127,1744.5286923894057,58.76957480714203,5373.218268081556,5.912575404839743,540.5783227282051,18.289890911450783,1672.218597618357
55239,Red Oak Power LLC,NJ,40.448674,-74.348879,PJM,821.0999999999999,0.0,821.0999999999999,4,0.1993732138553942,0.1533640106579956,4.092412609038946,374.16343854070357,12.196619696413174,1115.119515100633,1.5466866369051837,141.4113496599025,4.086157754070558,373.591566086451
59004,"Potomac Energy Center, LLC",VA,39.058056,-77.545,PJM,812.0,0.0,812.0,3,0.2057299731945842,0.1582538255342956,23.83690479258254,2179.3741524646894,43.56506485481979,3983.091643869237,6.217325838577296,568.441219527067,12.244921076446834,1119.535641275139
55348,Troy Energy LLC,OH,41.47724,-83.45983,PJM,795.6,795.6,0.0,4,0.1891078438187384,0.1454675721682603,95.7854590181173,8757.527681656436,103.70584286780947,9481.677062199722,23.25728823217862,2126.3806383706165,26.414600023443615,2415.049145000559
7835,Essential Power Rock Springs LLC,MD,39.71901,-76.15976,PJM,795.6,795.6,0.0,4,0.2048995721528133,0.1576150555021641,42.63865133561304,3898.390979256049,60.06467727754096,5491.627636803744,11.099587633346523,1014.8194407631106,16.37938021055105,1497.543333536096
57794,St Joseph Energy Center,IN,41.698992,-86.479699,PJM,780.0,0.0,780.0,3,0.1873564954380554,0.1441203811061965,81.14736093237681,7419.187285245879,94.00386782795488,8594.63934427016,22.569949169541356,2063.538209786638,24.850538789404023,2272.0492607455103
55337,Ironwood LLC,PA,40.3509,-76.3658,PJM,777.5999999999999,0.0,777.5999999999999,3,0.1910397534888925,0.1469536565299173,69.91051398166844,6391.818421181114,76.43641266535288,6988.472015117976,17.39023427183103,1589.9642762816939,18.490741254324565,1690.5820575382456
56846,CPV St Charles Energy Center,MD,38.5686,-76.8919,PJM,775.3,0.0,775.3,3,0.2047217569215312,0.157478274555024,17.507339056516955,1600.6709994529785,55.48403848902509,5072.826376139436,3.90997933912764,357.4838252916699,11.975614820863479,1094.913355050375
57839,Woodbridge Energy Center,NJ,40.515,-74.318889,PJM,772.9,0.0,772.9,3,0.1991262369938917,0.1531740284568398,2.212133707153089,202.25222465399668,6.620763984038298,605.3269928263586,0.5368750514532709,49.085718990013326,1.1116267246595557,101.63444339744508
56963,West Deptford Energy Station,NJ,39.8414,-75.2214,PJM,754.6,0.0,754.6,3,0.1976924609870397,0.1520711238361844,14.412575814935833,1317.7212173655616,20.029783068490605,1831.2944519762837,2.1700871820878165,198.4079709337432,3.058276587598859,279.61385943760996
55701,Fremont Energy Center,OH,41.377116,-83.161388,PJM,739.5,0.0,739.5,3,0.1894162814641786,0.145704831895522,89.38361495797255,8172.216224728918,96.48183287126444,8821.19614822989,20.038470367057812,1832.088719273857,21.916664317287538,2003.809309009146
58079,Newark Energy Center,NJ,40.707222,-74.125833,PJM,735.0,0.0,735.0,3,0.1934834513680768,0.1488334241292899,0.7450227251235034,68.11636343986316,1.1755652421141847,107.48025070758258,0.09173787286968513,8.387462662371211,0.1136298652590418,10.38901625225525
55193,Ontelaunee Energy Center,PA,40.4219,-75.9356,PJM,728.0,0.0,728.0,3,0.1879740677637147,0.144595436741319,29.445424747570108,2692.153119777838,42.49478967134013,3885.23791280824,4.866624657348258,444.9485401004121,8.277605566775641,756.809651819487
55640,University Park North,IL,41.4425,-87.7514,PJM,726.0,726.0,0.0,12,0.1945435285332508,0.1496488681025006,61.36116971571064,5610.1640882935435,67.88706839939505,6206.817682230404,14.707248982335429,1344.662764099239,16.318569120580616,1491.9834624530847
55516,Fayette Energy Facility,PA,39.8592,-79.9182,PJM,714.9000000000001,0.0,714.9000000000001,3,0.1771048162220281,0.1362344740169447,18.440007430692084,1685.943536520419,33.92980826796134,3102.1538987850367,4.077817947446041,372.82906948078084,7.724745885958713,706.2624810019394
55397,Washington Energy Facility,OH,39.58,-81.6564,PJM,714.9000000000001,0.0,714.9000000000001,3,0.1819546780762258,0.1399651369817122,19.95194487332845,1824.1778169900294,32.25072720089196,2948.6379155101217,6.486632094160652,593.0635057518309,9.250930498245292,845.7993598395694
7838,Remington,VA,38.5442,-77.7714,PJM,705.5,705.5,0.0,4,0.2010793015154639,0.154676385781126,48.06751795623081,4394.744498855388,78.13286832955667,7143.576532988038,11.695536315056788,1069.3061773766206,16.925637544456904,1547.4868612074881
55110,Madison,OH,39.4522,-84.4647,PJM,692.0,692.0,0.0,8,0.1937921942191785,0.1490709186301373,41.84532723045588,3825.85848964168,54.75117798189567,5005.821986916175,12.011406490960363,1098.1857363163758,15.571113951858297,1423.6447041699014
55222,Lincoln Generating Facility,IL,41.393315,-87.943612,PJM,692.0,692.0,0.0,8,0.1949623321713883,0.1499710247472218,97.25847736317257,8892.20364463292,98.3270150869388,8989.898522234404,26.610237987177072,2432.9360445419034,27.222866282136373,2488.947774366754
55236,Lee Energy Facility,IL,41.8287,-89.4054,PJM,692.0,692.0,0.0,8,0.2001465175588082,0.1539588596606217,86.71279188647104,7928.026686763065,94.78815714260215,8666.345795895053,26.33120195719845,2407.424178943858,27.12244111069948,2479.766044406809
55347,Armstrong,PA,40.638021,-79.351725,PJM,688.0,688.0,0.0,4,0.174161855366845,0.1339706579744962,15.39111312554581,1407.187485764188,30.88404139029926,2823.683784255932,5.8086753139759715,531.0788858492316,10.003945538050624,914.6464491931998
55350,Dresden Energy Facility,OH,40.0928,-82.0276,PJM,678.3,0.0,678.3,3,0.1821407338424982,0.1401082568019217,31.88273323358515,2914.9927527849277,44.8605148171614,4101.532783283327,6.708331953595724,613.3332071858947,10.587384509824115,967.9894408982047
2847,Tait Electric Generating Station,OH,39.727249,-84.211084,PJM,669.8,669.8,0.0,7,0.1940789108020652,0.1492914698477425,13.440640851236935,1228.8585921130912,22.11542970850519,2021.9821447776171,1.3416663907191448,122.66664143717894,2.6395487966595765,241.33017569458983
62565,"Hill Top Energy Center, LLC",PA,39.894212,-79.938201,PJM,664.7,0.0,664.7,1,0.1801771447726302,0.138597803671254,17.028495159492614,1556.890986010753,32.34489751736046,2957.247773015813,4.7116432509093205,430.77881151170925,8.290115276712417,757.9533967279923
55667,Lower Mount Bethel Energy,PA,40.801924,-75.107563,PJM,651.6,0.0,651.6,3,0.184829252959232,0.1421763484301784,36.937003539985035,3377.097466512917,52.23255638129159,4775.548012003802,11.294183121251915,1032.6110282287464,13.74712874468793,1256.8803423714676
55183,Nelson Energy Center,IL,41.774444,-89.607222,PJM,627.5,0.0,627.5,4,0.200004528815175,0.1538496375501346,93.27934712744998,8528.397451652569,96.57635067967564,8829.837776427486,22.555354507948454,2062.2038407267155,23.860534244685336,2181.5345595140875
55164,Bluegrass Generating Station,KY,38.3902,-85.4133,PJM,624.0,624.0,0.0,3,0.1980963900090113,0.1523818384684702,43.357264673092246,3964.0927701112905,76.88919466667559,7029.869226667482,8.478455909649421,775.1731117393755,16.87108130945486,1542.4988625787298
55231,Liberty Electric Power Plant,PA,39.8614,-75.3358,PJM,614.0,0.0,614.0,3,0.198773419223605,0.1529026301720039,7.934631019342387,725.4519789113039,12.891603581789576,1178.6608989064755,0.29606313517034744,27.068629501288903,0.9399657049715843,85.93972159740198
3804,Possum Point,VA,38.5367,-77.2806,PJM,613.0,0.0,613.0,3,0.198615567646835,0.1527812058821808,3.9638405902443115,362.4082825366227,25.698419129563234,2349.5697489886384,0.9559503343352416,87.40117342493636,3.631638293034391,332.03550107743
55188,Cordova Energy,IL,41.712216,-90.279679,PJM,611.2,0.0,611.2,3,0.1982499132857569,0.152499933296736,77.05842324276475,7045.341553624205,82.89177048467158,7578.676158598543,20.600712330327323,1883.4936987727835,21.62650854514289,1977.280781270207
2411,PSEG Sewaren Generating Station,NJ,40.5558,-74.2469,PJM,609.5,0.0,609.5,2,0.202679408931618,0.1559072376397062,1.9240628866645701,175.91432106647497,5.044193040061929,461.1833636628049,0.41386290374164764,37.83889405637921,1.2454111225945133,113.86615978006976
2404,PSEG Kearny Generating Station,NJ,40.737283,-74.096464,PJM,605.0,605.0,0.0,10,0.1919011779096031,0.1476162906996947,0.6741343688151104,61.63514229166722,0.8332856785663065,76.18611918320516,0.38606354832659157,35.29723870414551,0.44965457383853236,41.111275322380095
55392,Zion Energy Center,IL,42.4776,-87.895,PJM,596.7,596.7,0.0,3,0.1991517499042977,0.1531936537725367,32.11312039158743,2936.0567215165647,44.191592827486616,4040.3742013702044,10.291321374653768,940.9208113969157,13.256470121612189,1212.0201254045428
7872,Robert P Mone Plant,OH,40.9297,-84.7392,PJM,596.7,596.7,0.0,3,0.1902640144850924,0.1463569342193019,110.41452231334787,10095.042040077518,113.28723820355123,10357.690350038967,27.121051142928728,2479.6389616391975,27.81638252024782,2543.212116136943
7836,Marsh Run Generation Facility,VA,38.5283,-77.7681,PJM,596.7,596.7,0.0,3,0.201086876208691,0.1546822124682239,46.14588751316506,4219.052572632233,78.15754025748753,7145.832252113144,12.528821993623096,1145.4922965598257,18.111627544851736,1655.9202326721584
7158,Woodsdale,OH,39.4492,-84.4611,PJM,571.8,571.8,0.0,6,0.1937939839588381,0.1490722953529524,40.35319682855274,3689.435138610536,52.83545490185562,4830.670162455371,11.579126514256242,1058.662995589142,15.10095735340116,1380.6589580252487
55247,"Darby Power, LLC",OH,39.7139,-83.1778,PJM,564.0,564.0,0.0,6,0.18905063310598,0.1454235639276769,101.3307354395356,9264.524383043254,108.93837654080839,9960.080140873908,26.700585892276006,2441.196424436663,27.932792321048368,2553.855297924422
56807,Bear Garden,VA,37.695556,-78.285278,PJM,559.0,0.0,559.0,3,0.1970424247512121,0.1515710959624709,23.83655730063985,2179.342381772786,71.82762702947926,6567.097328409532,5.914312864553184,540.7371761877197,16.52845425396429,1511.1729603624492
55710,Allegheny Energy Units 3 4 & 5,PA,40.545278,-79.768611,PJM,556.0,0.0,556.0,3,0.1752978282469134,0.1348444832668565,2.6218267075824784,239.70987040754085,10.427538216187543,953.3749226228609,0.4774539292535885,43.6529306746138,2.110666059888134,192.97518261834367
7837,Louisa Generation Facility,VA,38.1181,-78.2139,PJM,545.7,545.7,0.0,5,0.2039380882796476,0.1568754525228058,22.44033467491866,2051.6877417068486,57.8250917069155,5286.865527489416,6.99327534660005,639.3851745462902,17.31865093163726,1583.4195137496922
59326,Middletown Energy Center,OH,39.465,-84.347778,PJM,543.9,0.0,543.9,2,0.195233523273318,0.1501796332871676,42.896142865145,3921.9330619561138,57.737176245415384,5278.827542437977,8.621970081979649,788.2944074952821,11.0443364144591,1009.7679007505461
55438,MRP Elgin LLC,IL,42.000061,-88.244572,PJM,540.0,540.0,0.0,4,0.1932413482114189,0.1486471909318606,13.567475410318128,1240.4548946576572,22.28917567984929,2037.8674907290776,4.080597882987547,373.08323501600427,5.97894636589319,546.646524881663
61035,Birdsboro Power,PA,40.268522,-75.799669,PJM,525.0,0.0,525.0,1,0.1923324536871352,0.1479480412977963,22.53658994304329,2060.488223363958,40.96374017185591,3745.2562442839685,4.9184009568088,449.6823731939474,11.300090484277616,1033.1511299910962
61322,Long Ridge Energy Generation,OH,39.70257,-80.84552,PJM,521.9,0.0,521.9,1,0.1784436647420925,0.1372643574939173,2.085994131957272,190.71946349323628,6.313233614759239,577.2099304922732,0.37841872558745115,34.598283482281246,1.1091942810607383,101.41204855412462
55276,Ceredo Generating Station,WV,38.3681,-82.5339,PJM,519.0,519.0,0.0,6,0.1814534625749063,0.1395795865960818,3.6959243024317083,337.91307907947044,9.509811995548002,869.4685253072458,0.8861044538549131,81.0152643524492,2.4890847854755855,227.57346610062493
2393,Gilbert,NJ,40.565833,-75.163889,PJM,512.0,161.0,351.0,6,0.1918261385377326,0.1475585681059482,26.18768778486822,2394.3028831879515,51.59386619063068,4717.1534802862325,4.640754894600927,424.2975903635133,11.365766461445686,1039.1557907607482
1571,Chalk Point Power,MD,38.5444,-76.6861,PJM,456.0,456.0,0.0,4,0.204034305562555,0.15694946581735,16.761968839450763,1532.5228653212123,44.90534127776818,4105.631202538804,4.7595971390002925,435.1631669943124,9.416684154907564,860.9539798772629
3797,Chesterfield,VA,37.3822,-77.3833,PJM,446.6,0.0,446.6,4,0.2024197138903424,0.1557074722233403,16.07810469624038,1469.9981436562632,44.64055241743977,4081.4219353087788,4.366236259877248,399.1987437602055,10.46854226542475,957.1238642674056
2880,Richland (OH),OH,41.305203,-84.334622,PJM,435.0,435.0,0.0,5,0.1912176899299345,0.1470905307153342,83.20486072503365,7607.301552003076,94.8190839255014,8669.173387474413,16.511774640715256,1509.647967151109,19.255571020181293,1760.5093504165752
10308,Sayreville Cogeneration Facility,NJ,40.439,-74.3444,PJM,430.2000000000001,0.0,430.2000000000001,3,0.19937810407482,0.1533677723652462,4.420792494879296,404.18674238896415,13.401721753655856,1225.3002746199638,1.3680757783634483,125.08121402180097,4.1633009653473385,380.6446596888995
2869,West Lorain,OH,41.429444,-82.264444,PJM,425.0,425.0,0.0,5,0.1893931015502601,0.1456870011925078,15.941192870821231,1457.4804910465123,33.07845300837525,3024.3157036228795,2.4202813808233214,221.2828691038465,7.373084039958253,674.110540796183
10633,Hopewell Cogeneration,VA,37.291667,-77.281111,PJM,399.0,0.0,399.0,4,0.2052216770949176,0.157862828534552,16.07845218818307,1470.0299143481664,46.708129476434564,4270.45755213116,1.967151887557907,179.85388686243718,7.3511920475688965,672.108987206299
55938,NAEA Ocean Peaking Power LLC,NJ,40.0633,-74.1672,PJM,383.0,383.0,0.0,2,0.2043232975499462,0.1571717673461125,3.6813296408388037,336.5787100195477,16.78177588018399,1534.3337947596788,0.6195781338130628,56.64714366290859,3.1114428548301536,284.47477529875687
55349,Pleasants Energy LLC,WV,39.3325,-81.3642,PJM,382.8,382.8,0.0,2,0.1827270888468907,0.1405592991129929,8.384633085123607,766.5950249255868,19.820940410935,1812.2002661426282,3.590634243797183,328.28655943288527,6.906749852870687,631.4742722624628
60387,Invenergy Nelson Expansion LLC,IL,41.774417,-89.606528,PJM,380.0,380.0,0.0,2,0.2000045463687947,0.153849651052919,93.34815053210225,8534.688048649348,96.64411160849984,8836.033061348555,22.630412767569105,2069.0663101777463,23.93316006070717,2188.174634121798
55109,MRP Rocky Road LLC,IL,42.0931,-88.2397,PJM,374.0,374.0,0.0,3,0.1957741579616541,0.1505955061243493,14.809759105428448,1354.0351182106008,29.904461603861222,2734.122203781597,4.4656189554860735,408.28516164444096,8.698418309371053,795.2839597139248
7212,Darbytown,VA,37.498223,-77.368544,PJM,368.4,368.4,0.0,4,0.2077206967819128,0.1597851513707022,12.164302945743172,1112.1648407536613,39.00388561509446,3566.069541951493,4.7088633153678146,430.52464597648583,10.2461474221043,936.7906214495359
7032,Gravel Neck,VA,37.1575,-76.6911,PJM,367.6,367.6,0.0,4,0.2043996521766565,0.1572305016743512,13.516046602800275,1235.752832256025,32.66841251600317,2986.8262871774327,1.3225543338712937,120.91925338251826,4.4611015602311275,407.87214264970305
57349,Garrison Energy Center LLC,DE,39.187195,-75.499396,PJM,361.0,0.0,361.0,2,0.2072865521316146,0.1594511939473959,31.723581923833954,2900.4417758933896,34.21475166096567,3128.205866145432,11.842525406813898,1082.7451800515562,12.4697483633661,1140.091278936329
55253,Crete Energy Venture LLC,IL,41.429444,-87.6187,PJM,356.0,356.0,0.0,4,0.1964861444194333,0.1511431880149487,56.65960373113927,5180.306626847018,69.00182255153881,6308.738061854976,12.938514994052484,1182.9499423133698,17.1466424200066,1567.693021257746
55284,Big Sandy Peaker Plant,WV,38.3441,-82.5938,PJM,353.4,353.4,0.0,6,0.1828515018610917,0.140655001431609,4.811373438460834,439.8970000878477,11.106537472200287,1015.454854601169,1.1262213862524602,102.96881245736778,2.5234864878017174,230.71876459901412
55250,University Park South,IL,41.440893,-87.753189,PJM,353.4,353.4,0.0,6,0.1945445100291397,0.1496496230993382,62.82445828637065,5743.950471896745,69.22734482234344,6329.357240899971,14.940068583936522,1365.9491276741962,16.529496729792356,1511.2682724381582
3096,Brunot Island,PA,40.464851,-80.043761,PJM,339.9,0.0,339.9,4,0.1759306732259982,0.1353312870969217,0.38397859667046236,35.10661455272798,2.498467067928167,228.4312747820038,0.04030906535183134,3.6854002607388647,0.4850987519927289,44.351885896478066
1556,Perryman,MD,39.442836,-76.221761,PJM,333.0,333.0,0.0,2,0.2024488528840521,0.1557298868338862,8.86139203049182,810.1844142163948,33.99374678541597,3107.999706095174,2.453988099264077,224.36462621842986,8.676178825039008,793.2506354321378
1572,Dickerson Power,MD,39.2097,-77.4644,PJM,326.0,326.0,0.0,2,0.2003189946335933,0.1540915343335333,47.89898436402703,4379.33571328247,65.77570735562155,6013.778958228255,11.34561192876977,1037.3130906303788,15.868914546742085,1450.8721871307048
55238,NRG Rockford I,IL,42.238558,-89.101202,PJM,316.0,316.0,0.0,2,0.2003678326561334,0.1541291020431796,38.34538838370032,3505.864080795457,49.12389346200294,4491.327402240268,5.818752580313929,532.0002359144163,7.353276999225026,672.2996113577166
55296,Calumet Energy Team LLC,IL,41.6835,-87.5563,PJM,312.8,312.8,0.0,2,0.1946628188391045,0.1497406298762343,1.877498966344351,171.6570483514835,2.5651855209243015,234.53124762736468,1.1133641843729967,101.79329685695969,1.393790182122375,127.43224522261713
58933,Shell Chemical Appalachia LLC,PA,40.671667,-80.336389,PJM,309.8,0.0,309.8,5,0.1751569280335954,0.1347360984873811,5.249560778190656,479.9598425774313,16.098259228916298,1471.8408437866328,0.7742120483093123,70.78510155970855,2.9092025441856206,265.9842326112567
54844,Gordonsville Energy LP,VA,38.124688,-78.203543,PJM,300.4,0.0,300.4,4,0.2039352356601055,0.1568732582000812,22.306202785041013,2039.424254632321,58.86826251886548,5382.241144581986,7.100650356890704,649.2023183442928,17.882282862677524,1634.9515760162305
55233,Handsome Lake Energy LLC,PA,41.2908,-79.8061,PJM,294.5,294.5,0.0,5,0.1725577338179287,0.1327367183214836,10.877540281968763,994.5179686371439,57.129412837653724,5223.260602299769,2.088426575556089,190.9418583365567,11.663567056329473,1066.3832737215516
54832,Brandywine Power Facility,MD,38.6681,-76.8678,PJM,288.8,0.0,288.8,3,0.2043434318939261,0.1571872553030201,16.608724892725267,1518.511990192024,54.39604121646833,4973.35233979139,4.292220476084662,392.4315863848833,15.759454584795302,1440.8644191812846
55285,Wolf Hills Energy,VA,36.6644,-82.1044,PJM,285.0,285.0,0.0,5,0.1987201884572627,0.1528616834286636,19.31464465043829,1765.910368040072,24.1826592755573,2210.9859909080956,6.256939920043751,572.0630784040001,7.42208040387729,678.590208354495
50561,Eagle Point Power Generation,NJ,39.8746,-75.1592,PJM,251.8,0.0,251.8,4,0.1988892742756389,0.1529917494427992,3.662565075933641,334.86309265679,8.896488716703328,813.3932540985899,1.1463759189283758,104.8115125877372,1.9956462268583397,182.45908359847675
2399,PSEG Burlington Generating Station,NJ,40.076611,-74.879172,PJM,242.0,242.0,0.0,4,0.2003549539010784,0.1541191953085219,10.27325179363398,939.2687354179637,19.658314181756918,1797.3315823320609,1.0730551190211655,98.10789659622083,3.291096189199954,300.90022301256715
55228,Greenville Electric Generating Station,OH,40.075783,-84.615136,PJM,236.0,236.0,0.0,4,0.1960528865739861,0.1508099127492201,96.09264189545365,8785.61297329862,103.5897805589516,9471.065651104145,20.509321949400324,1875.138006802315,22.49662836963415,2056.8345937951217
5083,Cumberland (NJ),NJ,39.3757,-74.9654,PJM,231.2,231.2,0.0,2,0.2032420104360043,0.1563400080276956,12.117739025422953,1107.9075680386698,31.844509119889448,2911.4979766756064,1.8413598043047783,168.3528963935797,5.289522351599799,483.61347214626727
55216,Morris Cogeneration LLC,IL,41.411944,-88.332778,PJM,218.8,0.0,218.8,4,0.1962955471673033,0.1509965747440795,64.61438928315758,5907.601305888692,71.30882155904577,6519.663685398469,17.43853565186469,1594.3804024562,19.10788694453881,1747.0068063578337
52193,Delaware City Plant,DE,39.5871,-75.6343,PJM,184.0,184.0,0.0,2,0.2007645165604127,0.1544342435080098,16.47077059147805,1505.8990255065644,21.68488719151451,1982.6182575098976,4.39299313946424,401.64508703673044,6.087711343954597,556.5907514472774
10751,Camden Plant Holding LLC,NJ,39.9175,-75.1192,PJM,172.9,0.0,172.9,2,0.2007922788838844,0.1544555991414496,1.702710519172186,155.67639032431413,4.394383107234993,401.7721698043421,0.2863333607750778,26.179050128007113,0.4837087842219761,44.224803128866384
7336,Anderson,IN,40.0529,-85.7389,PJM,168.7,168.7,0.0,3,0.1982610602717486,0.1525085079013451,77.3277294983481,7069.963839848969,84.06664074290039,7686.092867922321,21.103880663339837,1929.4976606482135,22.174503338762186,2027.3831624011139
55936,NRG Rockford II Energy Center,IL,42.2383,-89.1011,PJM,168.0,168.0,0.0,1,0.2003679982527956,0.1541292294252274,38.37179777134462,3508.278653380079,49.14057307525198,4492.852395451609,5.834737209677587,533.4616877419508,7.374474007729006,674.2376235637947
2831,Dick's Creek,OH,39.465,-84.3778,PJM,159.1,159.1,0.0,4,0.1943999704482183,0.1495384388063217,39.88755762535055,3646.8624114606214,53.62912649895547,4903.234422761642,6.7542008900305675,617.5269385170803,8.905870999155908,814.2510627799686
3176,Hunlock Power Station,PA,41.200556,-76.07,PJM,145.9,0.0,145.9,3,0.1808836309966998,0.139141254612846,7.710498716308497,704.9598826339196,32.19721344171797,2943.745228957071,0.8815870585999664,80.60224535771121,5.834737209677587,533.4616877419508
54785,Grays Ferry Cogeneration,PA,39.942219,-75.188069,PJM,135.0,135.0,0.0,1,0.2023095793875026,0.155622753375002,1.2871101557170974,117.67864280842032,2.614876868728714,239.0744565694824,0.13760680930452768,12.581193993556814,0.2032827864725977,18.585854763208932
2854,Yankee Street,OH,39.603,-84.2047,PJM,125.5,125.5,0.0,7,0.1933118873946449,0.1487014518420346,25.205675554831362,2304.5189078702956,39.99423765175583,3656.6160138748182,3.5200933794314784,321.8371089765923,5.981031317549319,546.8371490330805
10030,Energy Center Dover,DE,39.149549,-75.547335,PJM,118.0,50.0,68.0,3,0.2102963326756849,0.1617664097505269,45.79943804630492,4187.377192805021,50.641390775722314,4630.070013780325,6.934201716343055,633.9841569227935,8.127489047534338,743.0847129174251
50463,Procter & Gamble Mehoopany Mill,PA,41.574259,-76.043233,PJM,117.6,117.6,0.0,2,0.1762752592472579,0.1355963532671215,18.37572142129477,1680.0659585183787,33.534014945239484,3065.9670807076095,5.580025615687135,510.17377057710945,8.640387154942124,789.9782541661369
7288,Sherman Avenue,NJ,39.451,-75.0578,PJM,112.8,112.8,0.0,1,0.203280631861676,0.1563697168166739,27.981788684967402,2558.3349654827334,52.347576214321386,4786.064111023669,4.643534830142433,424.55175589873664,9.864948760975345,901.9381724320315
7962,Warren F Sam Beasley Generation Station,DE,39.279179,-75.623928,PJM,96.0,96.0,0.0,2,0.2116248381187951,0.1627883370144578,56.86983635646563,5199.527895448286,62.662874533020634,5729.177100161885,13.722456816757067,1254.6246232463602,14.363579451016797,1313.2415498072498
55738,Buchanan Generation LLC,VA,37.175278,-81.961388,PJM,88.0,88.0,0.0,2,0.1907902512304145,0.1467617317157035,1.3579985120254903,124.15986395661623,4.1608685217485215,380.42226484557904,0.3245574744707799,29.673826237328445,0.9420506566277135,86.13034574881951
55377,Gans,PA,39.7475,-79.838888,PJM,87.6,87.6,0.0,2,0.1727873239646369,0.1329133261266438,14.504661179748208,1326.140450719836,30.161953133393176,2757.6642864816613,6.134970248160193,560.9115655460747,11.519705392056558,1053.2302072737423
55654,Chambersburg,PA,39.866944,-77.685833,PJM,87.6,87.6,0.0,2,0.1915156943408151,0.14731976487755,71.68446034909172,6554.007803345528,80.05971115176274,7319.745019589735,19.37232831292453,1771.1843028959568,21.840216089896135,1996.8197567905036
55196,Springdale 1 & 2,PA,40.546667,-79.768333,PJM,87.6,87.6,0.0,2,0.1752970412502442,0.1348438778848033,2.6569233937939867,242.91871028973588,10.512326250203463,961.1269714471737,0.45590942880692,41.68314777663268,2.063754647625227,188.6861392114493
7335,Richmond,IN,39.839572,-84.965682,PJM,82.8,82.8,0.0,2,0.200455703864384,0.1541966952802954,71.31924631732642,6520.616806155557,89.10666387965006,8146.89498328229,17.433323272724365,1593.903842077656,21.05523179136349,1925.0497637818046
7138,Forked River,NJ,39.8154,-74.2098,PJM,76.8,76.8,0.0,2,0.2052104256546861,0.1578541735805277,2.4769225674814983,226.46149188402268,21.105618123053276,1929.6565141077278,0.7526675478626439,68.81531866172743,3.1576592832076846,288.7002773218454
58235,Clayville,NJ,39.424444,-75.02,PJM,73.0,73.0,0.0,1,0.2024066117959858,0.1556973936892199,20.920752409543155,1912.7545060153739,41.906485812369006,3831.450131416594,4.272413435351434,390.6206569464168,10.294101310195273,941.1749769321392
52149,West Point (PA),PA,40.217963,-75.298823,PJM,70.69999999999999,70.69999999999999,0.0,2,0.1989123460720355,0.1530094969784889,20.261212702320947,1852.4537327836292,38.14592800859729,3487.62770364318,3.3341851900932906,304.83978880852936,6.966865958955746,636.9706019616682
50410,Chester Operations,PA,39.843743,-75.358801,PJM,69.2,0.0,69.2,4,0.1987822566686819,0.1529094282066784,9.993868271712667,913.7250991280152,15.334471938887631,1402.0088629840118,0.7349454587855456,67.19501337467845,1.5018601762984056,137.31293040442563
2434,Howard Down,NJ,39.4889,-75.0347,PJM,68.2,68.2,0.0,1,0.2039969442675382,0.1569207263596448,32.38277413911347,2960.7107784332316,55.2067399187599,5047.473364000904,3.9836476309775386,364.2192119750892,8.593475742679216,785.6892107592424
50279,Archbald Power Station,PA,41.485,-75.5406,PJM,60.5,60.5,0.0,1,0.1722640396870807,0.1325107997592929,8.924635564061072,815.9666801427264,34.79819063273916,3181.548857850437,1.1230939587682662,102.68287623024148,5.492457646129709,502.1675562175733
3110,Hunterstown,PA,39.8662,-77.1648,PJM,60.0,60.0,0.0,3,0.1950027171462389,0.1500020901124915,65.64018549797315,6001.388388386115,84.63305260948216,7737.879095724083,18.257226668838094,1669.2321525794825,23.60339020709607,2158.0242475059263
3132,Warren,PA,41.835947,-79.188668,PJM,53.1,53.1,0.0,1,0.1720934077288038,0.1323795444067722,5.134540945160861,469.44374355756435,17.138997597267462,1566.994066035882,1.1171865957425668,102.14277446789181,3.418973224109212,312.5918376328422
55262,Bowling Green Generating Station,OH,41.397369,-83.641236,PJM,49.5,49.5,0.0,2,0.1955322326065075,0.1504094096973135,97.33353562279322,8899.066114083951,100.85432398611007,9220.966764444349,18.724255839811036,1711.9319624970087,19.49151804926658,1782.0816502186585
55264,Napoleon Peaking Station,OH,41.4079,-84.1095,PJM,49.5,49.5,0.0,2,0.1925597086662859,0.1481228528202199,98.0441566455906,8964.037179025425,103.09564701644898,9425.88772721819,21.288051392964583,1946.3361273567616,22.170680927392613,2027.0336847901815
55263,Galion Generating Station,OH,40.7167,-82.789,PJM,49.5,49.5,0.0,2,0.1844045011327477,0.1418496162559598,80.40338068308138,7351.166233881725,101.9815878481906,9324.030888977424,17.648073293305675,1613.5381296736614,22.516435410367375,2058.6455232335884
57908,Central Utility Plant Cincinnati,OH,39.134533,-84.509419,PJM,45.3,0.0,45.3,3,0.1894714218031236,0.1457472475408643,1.6502392358262676,150.87901584697303,6.028637713697603,551.1897338237808,0.15289645478280853,13.979104437285349,0.5021258571844508,45.90864979972121
7318,Van Sant Station,DE,39.145036,-75.548172,PJM,45.1,45.1,0.0,1,0.2102986707286875,0.1617682082528365,44.869202115728605,4102.3270505809005,49.82165728292085,4555.122951581335,7.4533546787192275,681.4495706257578,8.647336993795887,790.6136680041953
56397,Hunlock Unit 4,PA,41.2025,-76.068333,PJM,44.0,44.0,0.0,1,0.1808825428133934,0.1391404175487642,7.809881411917322,714.0463005181551,32.10721302856173,2935.516619754215,0.8728997600327615,79.80797806013818,5.993888519428783,548.0126646334886
58207,Central Utility Plant at White Oak,MD,39.039444,-76.9825,PJM,41.7,17.2,24.5,8,0.2065444997896154,0.1588803844535503,6.2016887011563275,567.0115383914356,17.04482728079896,1558.3842085301903,0.854830179012975,78.15590208118627,2.992600610430789,273.6091986679578
2903,Bryan (OH),OH,41.471822,-84.543148,PJM,36.8,36.8,0.0,3,0.1958536800213546,0.1506566769395035,93.09100649451298,8511.177736641186,99.44107425519717,9091.755360475168,20.524611594878603,1876.5359172460435,21.8412585657242,1996.9150688662123
2848,O H Hutchings,OH,39.6088,-84.2921,PJM,32.6,32.6,0.0,1,0.1896263492637645,0.1458664225105881,39.59253696600827,3619.889094035041,55.35616145411583,5061.134761519161,10.247189897932365,936.8859335252447,13.705429711565344,1253.067859343117
2909,West 41st Street,OH,41.474,-81.7145,PJM,32.0,32.0,0.0,2,0.1852843612195979,0.142526431707383,1.5720535487214222,143.73061016881573,3.2733741001228553,299.27991772551815,0.5347900997971416,48.8950948385958,0.7693471611116774,70.34031187306765
7782,Hamilton Peaking,OH,39.3528,-84.5183,PJM,32.0,32.0,0.0,1,0.1948436642077308,0.1498797416982545,15.485630933957,1415.8291139617827,24.83142673255617,2270.3018726908495,3.7654226909693485,344.26721746005467,4.9548876107910615,453.0182958437541
7783,Bowling Green Peaking,OH,41.3884,-83.6402,PJM,32.0,32.0,0.0,1,0.1946645699562236,0.1497419768894028,97.21087096702429,8887.85105984222,100.87691096238481,9223.031859418039,17.691857278084388,1617.5412368534296,18.687421693886087,1708.5642691552991
50628,Paulsboro Refinery,NJ,39.84,-75.2583,PJM,30.5,30.5,0.0,1,0.1979752027575684,0.1522886175058219,16.4693806237073,1505.7719427389527,20.227853475822883,1849.403746360949,2.419586396937945,221.21932772004067,2.8671560191203485,262.13997889100324
10805,Kenilworth Energy Facility,NJ,40.6781,-74.2744,PJM,28.8,0.0,28.8,2,0.1957050497358967,0.1505423459506898,0.5862189073149955,53.59715724022815,3.3049958669074817,302.171050688684,0.030231799013873507,2.764050195554149,0.48336129227928787,44.193032436963456
56668,NIH Cogeneration Facility,MD,39.0,-77.0939,PJM,28.0,28.0,0.0,1,0.2018840361234125,0.155295412402625,0.4847512600500407,44.320115204575146,8.574363685831365,783.9418227045818,0.07366829184989866,6.735386683419305,1.8385798687632726,168.09873085835633
55990,Ashtabula,OH,41.890026,-80.7612,PJM,26.1,0.0,26.1,7,0.1780922964749951,0.1369940742115347,14.123115026676562,1291.2562310104283,45.51310468552985,4161.198142677014,2.492212212959779,227.85940232775118,10.155452025062681,928.4984708628735
3120,Blossburg,PA,41.706475,-77.08184,PJM,24.0,24.0,0.0,1,0.1803716864000464,0.1387474510769588,14.093578211548065,1288.55572219868,33.204940075513754,3035.880235475543,2.719471943477863,248.63743483226173,7.714321127678067,705.3093602448517
54044,University of Illinois Cogen Facility,IL,41.8675,-87.6524,PJM,23.4,23.4,0.0,3,0.1940798870054287,0.1492922207734067,1.1720903226873027,107.16254378855338,1.2287315093454796,112.34116656872955,0.31760763561701594,29.038412399270026,0.3189976033877687,29.16549516688171
56038,UMCP CHP Plant,MD,38.985844,-76.935478,PJM,22.0,22.0,0.0,2,0.203748959601778,0.1567299689244446,4.130636722734648,377.65821465002495,14.62767332745983,1337.38727565347,0.8079187667500678,73.8668586742919,2.125608213423727,194.34132237016928
2914,Dover (OH),OH,40.520066,-81.46815,PJM,19.5,19.5,0.0,1,0.181198358891799,0.1393833529936916,19.65866167369961,1797.363353023964,31.395202037993602,2870.418472045129,4.113609617542926,376.1014507467818,6.0046607696521175,548.9975560824793
2917,Hamilton (OH),OH,39.4098,-84.5543,PJM,16.3,16.3,0.0,1,0.1943304077208572,0.149484929016044,41.710847848635545,3813.563231875249,55.53998469179789,5077.941457535807,4.578553836859739,418.6106365128904,7.361269313906854,673.0303372714837
58584,Princeton University Cogeneration,NJ,40.341389,-74.657222,PJM,15.5,15.5,0.0,1,0.201362743485394,0.1548944180656877,19.36642094989883,1770.644201133607,38.87218616881563,3554.0284497202856,2.471362696398487,225.95316081357592,8.293937688081988,758.3028743389244
59860,HP Hood CT,VA,39.132519,-78.187474,PJM,15.0,15.0,0.0,1,0.1938280626653361,0.1490985097425662,46.478089810374975,4249.425354091426,63.83774479124945,5836.593809485663,10.443870337493887,954.8681451422982,14.250644569643132,1302.9160749388004
58140,Summit Street Power Plant,OH,41.143056,-81.340833,PJM,13.2,13.2,0.0,2,0.176304101283737,0.1356185394490285,21.84647094486452,1997.391629244756,49.38346994319103,4515.060109091751,4.231756878056914,386.90348599377495,10.660705309731325,974.693056889721
58328,North Chicago Energy Center,IL,42.306389,-87.851944,PJM,12.4,12.4,0.0,2,0.1960028994972799,0.1507714611517538,3.9210990812936624,358.5004874325634,9.483402607903699,867.0539527226238,0.5869138912003719,53.66069862403399,1.721822576020037,157.4237783789748
10061,"Mars Wrigley Confectionery US, LLC",NJ,40.8625,-74.825,PJM,12.3,0.0,12.3,2,0.1857500825550224,0.1428846788884788,15.969687210121663,1460.0856877825518,32.70628913775619,2990.289292594851,2.89391289870734,264.5863221675282,7.245901988934372,662.4824675597139
50366,University of Notre Dame,IN,41.7094,-86.2367,PJM,10.8,10.8,0.0,2,0.1917205546105639,0.1474773497004338,16.011386243244246,1463.8981708109022,26.87537433944817,2457.1770824638324,0.7318180313013518,66.90907714755215,1.5557214274150768,142.23738764937843
57788,US GSA Heating and Transmission,DC,38.885709,-77.028373,PJM,10.8,10.8,0.0,2,0.2072411834619143,0.1594162949707033,0.5865663992576836,53.62892793213106,2.995728037914983,273.89513489508414,0.1125873894309772,10.293704176546486,0.17965333436980002,16.425447713810286
58181,Loyola University Health Plant,IL,41.855833,-87.835556,PJM,10.6,10.6,0.0,2,0.19671860655227,0.1513220050402076,1.167572927432356,106.7495247938154,2.0630596637398506,188.62259782764346,0.09069539704162052,8.292150586662446,0.33081232943916755,30.24569869158103
10123,Hoffmann LaRoche,NJ,40.8359,-74.155,PJM,10.6,10.6,0.0,2,0.1939603177470696,0.1492002444208228,0.5712767537794028,52.231017488402536,1.9633294761883369,179.50440925150505,0.04239401700796055,3.8760244121563923,0.1389967770752805,12.7082767611685
50411,Rutgers Biomedical and Health Cogen,NJ,40.73928,-74.187633,PJM,10.5,10.5,0.0,3,0.1946674542743521,0.1497441955956555,0.6783042721273688,62.016390594502276,1.5393893061087314,140.74416512994114,0.020502024618603874,1.8744708222723538,0.056988678600865,5.210393472079085
58947,Bristol Myers Squibb Lawrenceville,NJ,40.324722,-74.707778,PJM,9.9,9.9,0.0,2,0.1954174102123327,0.1503210847787175,17.553207992951798,1604.864730784164,37.15140606862366,3396.6999834170197,4.907281214642778,448.6657110530539,10.9088145568107,997.3773309084067
54829,Bristol Myers Squibb New Brunswick,NJ,40.475724,-74.446199,PJM,9.5,9.5,0.0,1,0.1957732094971433,0.1505947765362641,5.274232706121518,482.21556170253876,13.060137173993354,1194.0696844793922,0.8690773486631912,79.45850044920604,2.6298190222643067,240.44059632130802
61282,APG Combined Heat and Power Plant,MD,39.3975,-76.2991,PJM,7.9,7.9,0.0,1,0.2029492163905849,0.1561147818389115,7.387678701551158,675.4449098561057,27.612404749889844,2524.562719989928,1.034483513382775,94.58134979499656,6.640571024771526,607.1379222648251
62492,"DTE Atlantic, LLC",NJ,39.3733,-74.4369,PJM,7.5,7.5,0.0,1,0.2106756500179092,0.1620581923214686,0.746065200951568,68.21167551557193,1.9716692828128537,180.26690585717517,0.31760763561701594,29.038412399270026,0.32108255504389793,29.356119318299235
63347,"AOC, Capitol Power Plant",DC,38.882704,-77.007443,PJM,7.5,7.5,0.0,1,0.2072427345666292,0.1594174881281763,0.5938637300541358,54.29611246209241,3.3595521019095296,307.1590493174427,0.07575324350602787,6.926010834836833,0.1424716965021625,13.025983680197712
58195,East Campus Steam Plant,PA,40.809167,-77.8475,PJM,7.0,7.0,0.0,1,0.1753776920958195,0.1349059169967842,28.99125277847663,2650.62882546072,43.63803816278431,3989.763489168851,6.398021648775161,584.961979316586,9.196721755185933,840.8431319027138
63501,Montclair State University Cogen,NJ,40.865207,-74.196651,PJM,6.4,6.4,0.0,1,0.1908043321785493,0.1467725632142687,0.37946120141551576,34.69359555799001,2.854646309183573,260.9962339824981,0.15324394672549674,14.010875129188271,0.8715097922620086,79.6808952925265
60742,Argonne National Laboratory CHP,IL,41.716534,-87.970608,PJM,6.3,6.3,0.0,1,0.191343997219417,0.1471876901687823,3.802951820779674,347.69845218557015,12.764769022708384,1167.0645963619093,0.6439025698012368,58.871092096113074,2.5123667456356946,229.7021024581206
58194,West Campus Steam Plant,PA,40.792778,-77.864722,PJM,6.1,6.1,0.0,1,0.1753863306338625,0.1349125620260481,27.552983627690164,2519.129931674529,41.81718038309813,3823.2850635975433,7.5044359942943935,686.1198623354873,10.547422936414971,964.3358113293687
54333,Bucknell University,PA,40.955015,-76.878843,PJM,5.9,0.0,5.9,2,0.1827808710134149,0.1406006700103192,50.927029152612015,4656.185522524526,62.51623293320622,5715.769868178853,11.06344847130695,1011.5152888052068,13.557050652037482,1239.5017739005696
63485,ECP Uptown Campus,PA,40.43727,-79.98741,PJM,5.6,5.6,0.0,1,0.1752712581340049,0.1348240447184653,0.1963329476188337,17.950440925150506,1.300314849539249,118.88592910073132,0.021544500446668474,1.9697828979811174,0.1146723410871064,10.484328327964013
63483,ACM - Midtown Thermal,NJ,39.359831,-74.434228,PJM,5.5,5.5,0.0,1,0.2106835762439643,0.1620642894184341,0.5879563670284365,53.75601069974275,0.7540575156333966,68.94240142933911,0.30579290956561705,27.958208874570698,0.3092678289924991,28.275915793599914
58136,Adkins Energy LLC,IL,42.362222,-89.803611,PJM,5.0,5.0,0.0,1,0.1951372991524336,0.1501056147326412,97.81064206010413,8942.687274066662,106.19319019357161,9709.09167484083,22.68184157508696,2073.768372579379,24.74837615825369,2262.7086773260517
10122,CIP II/AR Bridgewater Holdings - NJCOE,NJ,40.624,-74.634,PJM,5.0,5.0,0.0,1,0.190974910284278,0.1469037771417523,17.540698283015022,1603.720985875659,42.20949878639311,3859.1541747559413,3.161829186519943,289.08152562468047,9.315563999585299,851.7087085335129
59373,Broshco Fabricated Products,OH,40.776111,-82.568611,PJM,4.7,4.7,0.0,4,0.1872563441339416,0.1440433416414936,40.86018757293483,3735.7885780968977,72.9250065844886,6667.429173438957,6.332345671607091,578.957318546934,14.133539784957208,1292.209351767516
54933,Mondelez Global LLC,IL,42.3156,-89.0356,PJM,4.7,4.7,0.0,1,0.1995892769003921,0.1535302130003016,30.98446656173615,2832.865514215876,39.48029706851998,3609.627160550398,0.9535178907364241,87.1787785816159,2.440088421556549,223.09379854231304
61822,"Princeton Energy Center, LLC",NJ,40.339838,-74.62393,PJM,4.6,4.6,0.0,1,0.2016010913697263,0.1550777625920972,19.533564574331855,1785.9259039389121,38.071217240919324,3480.797004884052,2.943951738454441,269.16130180154886,6.329218244122897,578.6713823198077
63478,Ross Hall Central Utility Plant,DC,38.900216,-77.050788,PJM,4.6,4.6,0.0,1,0.2026858190693181,0.1559121685148601,0.4295000411626167,39.268575192010665,3.34982232751426,306.26946994416085,0.13482687376302208,12.327028458333446,0.38050367724358036,34.78890763369877
54790,CSL Behring LLC,IL,41.1603,-87.8542,PJM,4.2,4.2,0.0,1,0.1979576099209687,0.1522750845545913,81.38852034060243,7441.2361454265065,83.22223532216806,7608.890086598221,12.150055776092955,1110.8622423856414,12.410674733109106,1134.6902613128325
50326,Nalco,IL,41.800909,-88.197156,PJM,4.0,0.0,4.0,1,0.1925538844446107,0.1481183726497006,10.847655974897577,991.7856891334926,15.228139404425042,1392.2870312617179,2.9922531184881005,273.5774279760549,4.467703907142203,408.47578579585854
63492,DCO Burlington,NJ,40.108316,-74.826404,PJM,3.5,3.5,0.0,1,0.2003215483971399,0.1540934987670307,14.940416075879211,1365.9808983660992,24.26570984985978,2218.579186272894,2.1874617792222266,199.99650552888926,4.256428805987777,389.15920511888237
59794,Chicago West Side Energy Center,IL,41.870751,-87.678378,PJM,3.5,3.5,0.0,1,0.1941339239722524,0.1493337876709634,1.171047846859238,107.0672317128446,1.2190017349502098,111.45158719544774,0.30892033704981087,28.24414510169699,0.3123952564766929,28.561852020726207
10302,Juniata Locomotive Shop,PA,40.533299,-78.384125,PJM,1.5,1.5,0.0,1,0.1749612139237193,0.1345855491720917,6.177711757110841,564.819360650134,21.954888430983242,2007.3040851184676,0.9000041315624412,82.28609202856605,3.949245928651407,361.0739134767
64241,Maryland Bioenergy Center (Jessup),MD,39.1578,-76.78042,PJM,1.1,1.1,0.0,1,0.2042410490470797,0.1571084992669844,3.8019093449516097,347.6031401098614,21.693574490081716,1983.4125248074708,0.8391930415920059,76.72622094555481,5.8048529026064015,530.7294082382995
62901,Phoenix Contact - CCHP Plant,PA,40.229379,-76.75007,PJM,1.0,1.0,0.0,1,0.1946920513655391,0.1497631164350301,22.143924047805623,2024.5873415136566,33.104514904076865,3026.6985055155988,4.913883561553853,449.2693541992094,6.566555240978938,600.3707648895029
