plant_code,name,state,lat,lon,ba,nameplate_MW_total,nameplate_MW_peaker,nameplate_MW_ccgt,n_units,cf_ac,cf_dc,developable_area_km2_10km_excl_forest,developable_MW_10km_excl_forest,developable_area_km2_10km_incl_forest,developable_MW_10km_incl_forest,developable_area_km2_5km_excl_forest,developable_MW_5km_excl_forest,developable_area_km2_5km_incl_forest,developable_MW_5km_incl_forest
62949,Guernsey Power Station,OH,39.9364,-81.5354,PJM,2055.0,0.0,2055.0,3,0.1783867371329704,0.1372205670253619,55.1151,1945.6036814433198,104.7447,3697.565166926597,16.3269,576.3516122905871,28.0152,988.957223272223
59913,Greensville County Power Station,VA,36.718236,-77.649559,PJM,1773.3,0.0,1773.3,4,0.2102586119023634,0.1617373937710488,93.8898,3314.3791906388087,262.2501,9257.621958753205,25.5456,901.7785217604336,65.4984,2312.1418298913936
2406,PSEG Linden Generating Station,NJ,40.6217,-74.2072,PJM,1740.0,384.4,1355.6,10,0.1948787606016266,0.1499067389243282,4.1859,147.7653574093777,11.0763,391.001559586586,1.4292,50.45181414020464,2.3265,82.12716596500566
55199,Elwood Energy LLC,IL,41.4388,-88.1236,PJM,1728.0,1728.0,0.0,9,0.196745311091752,0.1513425469936554,97.2144,3431.7400227760354,104.9598,3705.158355578681,26.671499999999998,941.523622194562,29.7513,1050.2428337737688
60357,Lackawanna Energy Center,PA,41.471389,-75.544167,PJM,1498.5,0.0,1498.5,3,0.1722717560658029,0.1325167354352329,19.4823,687.7395596303588,87.435,3086.5199897486655,2.214,78.15583298797445,14.6961,518.7831694555425
55939,Warren County,VA,38.971667,-78.177222,PJM,1472.2,0.0,1472.2,4,0.1973518537237092,0.151809118249007,66.78359999999999,2357.510337820998,112.8861,3984.962591808393,17.8083,628.6461249321343,30.2031,1066.1917070095262
58260,Brunswick County Power Station,VA,36.765,-77.713889,PJM,1472.2,0.0,1472.2,4,0.2039219354247803,0.156863027249831,92.7873,3275.460127463903,267.615,9447.00688576187,21.4047,755.6016975418684,67.3218,2376.5091947831156
55524,York Energy Center,PA,39.7375,-76.306666,PJM,1449.4,0.0,1449.4,7,0.2020913536386663,0.1554548874143587,93.3399,3294.9673150470803,128.66219999999998,4541.870557843435,23.023799999999998,812.7571217473017,31.5747,1114.6101986654908
55736,Hanging Rock Energy Facility,OH,38.5731,-82.7833,PJM,1429.8000000000002,0.0,1429.8000000000002,6,0.1828371130569148,0.1406439331207037,34.855199999999996,1230.414268275721,58.536899999999996,2066.3957452727013,10.774799999999999,380.35838720814223,17.2251,608.0587347792044
2398,Bergen Generating Station,NJ,40.8375,-74.0244,PJM,1400.8,0.0,1400.8,8,0.1975534997434657,0.1519642305718967,0.9747,34.407628912998504,2.1465,75.77303320175571,0.1827,6.449444754698704,0.3078,10.865567025157423
55298,Fairless Energy Center,PA,40.1475,-74.7411,PJM,1338.0,0.0,1338.0,6,0.1973039015502958,0.151772231961766,54.3483,1918.535075871875,74.9979,2647.48118647191,7.1208,251.36949211416822,10.6173,374.79852104029857
52019,Doswell Energy Center,VA,37.820805,-77.446246,PJM,1313.0,561.0,752.0,9,0.1997440146345311,0.1536492420265624,73.6344,2599.3486307902913,191.0511,6744.244744249685,19.3869,684.3718692658364,47.0349,1660.3666617010294
63931,CPV Three Rivers Energy Center,IL,41.372222,-88.284444,PJM,1300.0,0.0,1300.0,2,0.1921312599247029,0.1477932768651561,116.68679999999999,4119.130105104416,148.50719999999998,5242.413694991742,21.8223,770.3432855526082,25.9713,916.8060457455197
62926,"Jackson Generation, LLC",IL,41.438536,-88.110626,PJM,1288.6,0.0,1288.6,2,0.1957955844223024,0.1506119880171557,101.2635,3574.676239285343,108.1863,3819.0561853599365,34.2333,1208.4607395786927,37.0989,1309.618533169632
55131,Kendall County Generation Facility,IL,41.4797,-88.2581,PJM,1256.0,0.0,1256.0,8,0.1994728341643485,0.1534406416648835,158.5638,5597.419092474517,168.2919,5940.828197664361,47.6424,1681.811859776998,49.9833,1764.4473563630636
55502,"Lawrenceburg Power, LLC",IN,39.0911,-84.8669,PJM,1232.0,0.0,1232.0,6,0.1898913649312913,0.1460702807163779,58.7889,2075.291531141251,101.8044,3593.7704082389096,11.6172,410.0957285401521,19.7721,697.9697133791913
60356,South Field Energy,OH,40.63534,-80.678245,PJM,1210.4,0.0,1210.4,4,0.1785110739907774,0.1373162107621365,32.7753,1156.992264196368,78.4062,2767.796690344048,11.546999999999999,407.61761676248454,25.0434,884.0504913509661
60589,CPV Fairview Energy Center,PA,40.412,-78.855,PJM,1197.0,0.0,1197.0,3,0.1712056261400532,0.1316966354923486,21.7656,768.3417337321845,89.0748,3144.4061392218723,5.9525999999999994,210.131170480676,23.3388,823.8768540829891
60368,Hummel Station LLC,PA,40.839014,-76.825517,PJM,1194.4,0.0,1194.4,4,0.1840271158715571,0.1415593199011978,80.1729,2830.1625034153462,105.6816,3730.6384279593135,13.5567,478.5615090641703,19.7532,697.30252943905
55297,New Covert Generating Facility,MI,42.32238,-86.29368,PJM,1176.0,0.0,1176.0,6,0.1883325575093557,0.1448711980841198,56.3247,1988.3034536123596,106.3926,3755.737252374151,10.4832,370.06469213167736,27.6588,976.376040400988
55460,Indeck Niles Energy Center,MI,41.862114,-86.221394,PJM,1174.4,0.0,1174.4,3,0.1880817041401602,0.1446782339539694,147.7665,5216.266438670969,199.92329999999998,7057.439948150275,34.8642,1230.7319749138837,44.9685,1587.4212175789198
55690,Bethlehem Power Plant,PA,40.6175,-75.3147,PJM,1153.0,0.0,1153.0,8,0.1905029107085935,0.1465407005450719,51.3891,1814.0731332440457,82.0746,2897.293916059082,8.0055,282.6000546455417,15.559199999999999,549.2512360553261
55198,Riverside Generating LLC,KY,38.191661,-82.604586,PJM,1150.0,1150.0,0.0,5,0.1865974179366376,0.1435364753358751,11.7621,415.2108054145683,31.0275,1095.293635065211,2.8827,101.76143620344801,7.9704,281.360998756708
60464,Tenaska Westmoreland Generating Station,PA,40.175249,-79.696665,PJM,1134.0,0.0,1134.0,3,0.1770631101341212,0.1362023924108625,60.0912,2121.263681683365,97.2054,3431.422316137873,15.5655,549.4736307020398,25.5942,903.4941376065111
59220,Wildcat Point Generation Facility,MD,39.719364,-76.161625,PJM,1113.6,0.0,1113.6,3,0.2034933459919951,0.1565333430707655,110.3274,3894.6385945787947,155.1744,5477.770772542521,28.7568,1015.1362502568127,42.309,1493.5389060019018
59906,Moxie Freedom Generation Plant,PA,41.113056,-76.158056,PJM,1105.0,0.0,1105.0,2,0.1788016940049349,0.1375397646191807,50.9715,1799.3315452333059,111.3444,3930.539444691157,9.3978,331.74927156928015,25.5393,901.5561271137199
7153,Hay Road,DE,39.7436,-75.5072,PJM,1098.2,0.0,1098.2,8,0.1999599993011823,0.1538153840778326,27.0621,955.3120902908145,38.625299999999996,1363.5015790019913,3.5946,126.89203128210158,5.0571,178.51935998350748
55279,Aurora,IL,41.8151,-88.2265,PJM,1086.2,1086.2,0.0,10,0.1948354957912065,0.1498734583009281,33.606,1186.3165868987667,46.2267,1631.836605594037,14.3784,507.56812512840634,19.5957,691.7426632712063
59764,Oregon Clean Energy Center,OH,41.667928,-83.443664,PJM,1060.0,0.0,1060.0,3,0.1884140170368299,0.1449338592590999,89.3142,3152.857135796995,94.1265,3322.7348752224825,23.6934,836.3944956265916,25.0902,885.7025658694112
54,J K Smith,KY,37.8833,-84.1017,PJM,1055.0,1055.0,0.0,9,0.1993336869107553,0.1533336053159656,67.3443,2377.303461378522,93.6846,3307.135479288704,16.2927,575.1443270655697,23.436,827.3080857751441
61028,Hickory Run Energy Station,PA,40.994444,-80.43,PJM,1033.7,0.0,1033.7,3,0.1720584637548518,0.1323526644268091,87.3999,3085.2809338598317,168.8715,5961.288505162026,19.962,704.67332344442,41.2524,1456.2401466816248
55439,Tenaska Virginia Generating Station,VA,37.8667,-78.3813,PJM,1011.4,0.0,1011.4,4,0.2010454543679576,0.1546503495138136,61.8705,2184.0742840480907,180.02519999999998,6355.02234183681,16.1406,569.7750848806235,53.1378,1875.8035330390192
55401,Rolling Hills Generating,OH,39.0839,-82.3328,PJM,977.5,977.5,0.0,5,0.180732958319688,0.1390253525536062,36.8181,1299.706086058962,85.61789999999999,3022.375019503657,12.1419,428.6180255450257,25.4169,897.2353168347098
60376,"Clean Energy Future-Lordstown, LLC",OH,41.14889,-80.85162,PJM,962.0,0.0,962.0,3,0.1751083269246571,0.134698713018967,83.6775,2953.8774683158226,190.7424,6733.347406560712,23.5575,831.5971253903379,55.183499999999995,1948.0182518933548
55503,"Waterford Power, LLC",OH,39.5333,-81.7178,PJM,921.6,0.0,921.6,4,0.1834239254530605,0.141095327271585,61.991099999999996,2188.331552999468,93.5244,3301.4803011294116,15.5376,548.4887401237361,22.964399999999998,810.6602579354292
55976,Hunterstown Power Plant,PA,39.8725,-77.1672,PJM,898.0,0.0,898.0,4,0.1999670896367679,0.1538208381821292,170.00459999999998,6001.287770906684,220.0356,7767.418972452009,48.0114,1694.8378319416604,62.2827,2198.625248075933
7839,Ladysmith,VA,38.0722,-77.5133,PJM,892.5,892.5,0.0,5,0.1985605565634254,0.1527388896641734,67.8825,2396.302318340639,209.7234,7403.39070644542,21.24,749.7876660634946,59.7168,2108.047085535805
58426,Hamilton Patriot Generation Plant,PA,41.180833,-76.839167,PJM,870.0,0.0,870.0,2,0.1790513456048088,0.1377318043113914,108.68939999999999,3836.81598643322,149.7618,5286.7020003515945,19.822499999999998,699.7488705529012,30.4938,1076.4536314221748
58420,Hamilton Liberty,PA,41.7675,-76.39,PJM,870.0,0.0,870.0,2,0.1793785015660433,0.1379834627431102,68.72579999999999,2426.071430336465,111.05279999999999,3920.2457496146917,17.7822,627.724775681463,26.2683,927.2903648048822
55801,Marcus Hook Energy LP,PA,39.807038,-75.421606,PJM,836.0999999999999,0.0,836.0999999999999,4,0.1973805775172895,0.1518312134748381,30.1086,1062.8557873088198,47.8656,1689.690984403428,4.6098,162.72934006683133,7.5393,266.14285078872433
59773,Carroll County Energy,OH,40.60441,-81.05918,PJM,832.3,0.0,832.3,3,0.1791888923213329,0.1378376094779484,79.9893,2823.681287996831,126.9846,4482.650040489945,19.5849,691.3614153054114,31.7808,1121.885680679412
60302,Keys Energy Center,MD,38.695519,-76.827785,PJM,830.6,0.0,830.6,3,0.2011869848660598,0.1547592191277383,49.419,1744.527150150275,152.2125,5373.213517923244,15.3135,540.5778448334898,47.370599999999996,1672.2171193044906
55239,Red Oak Power LLC,NJ,40.448674,-74.348879,PJM,821.0999999999999,0.0,821.0999999999999,4,0.1993732138553942,0.1533640106579956,10.5993,374.1631077639736,31.5891,1115.1185292865507,4.0059,141.41122464612772,10.5831,373.5912358152811
59004,"Potomac Energy Center, LLC",VA,39.058056,-77.545,PJM,812.0,0.0,812.0,3,0.2057299731945842,0.1582538255342956,61.7373,2179.372225803286,112.833,3983.0881226432343,16.1028,568.4407170003409,31.714199999999998,1119.5346515570095
55348,Troy Energy LLC,OH,41.47724,-83.45983,PJM,795.6,795.6,0.0,4,0.1891078438187384,0.1454675721682603,248.0832,8757.519939621618,268.5969,9481.6686799854,60.2361,2126.378758557781,68.4135,2415.0470099922263
7835,Essential Power Rock Springs LLC,MD,39.71901,-76.15976,PJM,795.6,795.6,0.0,4,0.2048995721528133,0.1576150555021641,110.4336,3898.387532909112,155.5668,5491.622781966406,28.747799999999998,1014.8185436186502,42.422399999999996,1497.5420096427492
57794,St Joseph Energy Center,IN,41.698992,-86.479699,PJM,780.0,0.0,780.0,3,0.1873564954380554,0.1441203811061965,210.17069999999998,7419.180726362095,243.4689,8594.631746235706,58.4559,2063.536385529239,64.3626,2272.0472521552865
55337,Ironwood LLC,PA,40.3509,-76.3658,PJM,777.5999999999999,0.0,777.5999999999999,3,0.1910397534888925,0.1469536565299173,181.0674,6391.812770536027,197.9694,6988.465837005198,45.0405,1589.96287068422,47.8908,1690.580562990283
56846,CPV St Charles Energy Center,MD,38.5686,-76.8919,PJM,775.3,0.0,775.3,3,0.2047217569215312,0.157478274555024,45.3438,1600.6695843902962,143.703,5072.821891540601,10.1268,357.4835092604424,31.0167,1094.912387099416
57839,Woodbridge Energy Center,NJ,40.515,-74.318889,PJM,772.9,0.0,772.9,3,0.1991262369938917,0.1531740284568398,5.7294,202.25204585424606,17.1477,605.3264576910069,1.3905,49.0856755961059,2.8790999999999998,101.63435354818301
56963,West Deptford Energy Station,NJ,39.8414,-75.2214,PJM,754.6,0.0,754.6,3,0.1976924609870397,0.1520711238361844,37.3284,1317.7200524427758,51.8769,1831.2928330324532,5.6205,198.40779553247984,7.9209,279.6136122468142
55701,Fremont Energy Center,OH,41.377116,-83.161388,PJM,739.5,0.0,739.5,3,0.1894162814641786,0.145704831895522,231.5025,8172.209000134848,249.8868,8821.188349909382,51.8994,1832.0870996278595,56.7639,2003.8075375546896
58079,Newark Energy Center,NJ,40.707222,-74.125833,PJM,735.0,0.0,735.0,3,0.1934834513680768,0.1488334241292899,1.9296,68.11630322203952,3.0446999999999997,107.48015569037298,0.2376,8.38745524748994,0.2943,10.389007067913676
55193,Ontelaunee Energy Center,PA,40.4219,-75.9356,PJM,728.0,0.0,728.0,3,0.1879740677637147,0.144595436741319,76.2633,2692.150739797557,110.06099999999999,3885.2344780891844,12.6045,444.94814674657806,21.4389,756.8089827668858
55640,University Park North,IL,41.4425,-87.7514,PJM,726.0,726.0,0.0,12,0.1945435285332508,0.1496488681025006,158.9247,5610.159128664834,175.8267,6206.8121951340045,38.0916,1344.6615753589554,42.2649,1491.9821434749056
55516,Fayette Energy Facility,PA,39.8592,-79.9182,PJM,714.9000000000001,0.0,714.9000000000001,3,0.1771048162220281,0.1362344740169447,47.7594,1685.9420460731105,87.8778,3102.15115634626,10.5615,372.8287398836911,20.006999999999998,706.2618566352324
55397,Washington Energy Facility,OH,39.58,-81.6564,PJM,714.9000000000001,0.0,714.9000000000001,3,0.1819546780762258,0.1399651369817122,51.6753,1824.1762043376132,83.529,2948.635308786141,16.8003,593.0629814579345,23.959799999999998,845.7986121162014
7838,Remington,VA,38.5442,-77.7714,PJM,705.5,705.5,0.0,4,0.2010793015154639,0.154676385781126,124.4943,4394.740613710383,202.3632,7143.57021775613,30.2913,1069.3052320635186,43.837199999999996,1547.4854931618938
55110,Madison,OH,39.4522,-84.4647,PJM,692.0,692.0,0.0,8,0.1937921942191785,0.1490709186301373,108.3789,3825.855107416614,141.8049,5005.81756155213,31.1094,1098.1847654724897,40.329,1423.6434456061525
55222,Lincoln Generating Facility,IL,41.393315,-87.943612,PJM,692.0,692.0,0.0,8,0.1949623321713883,0.1499710247472218,251.8983,8892.1957835387,254.6658,8989.890574773668,68.9202,2432.933893720775,70.5069,2488.9455740288236
55236,Lee Energy Facility,IL,41.8287,-89.4054,PJM,692.0,692.0,0.0,8,0.2001465175588082,0.1539588596606217,224.58509999999998,7928.0196780431515,245.5002,8666.33813446898,68.1975,2407.4220506763268,70.2468,2479.763852185927
55347,Armstrong,PA,40.638021,-79.351725,PJM,688.0,688.0,0.0,4,0.174161855366845,0.1339706579744962,39.8628,1407.186241749335,79.9893,2823.681287996831,15.0444,531.0784163524312,25.9101,914.6456406060147
55350,Dresden Energy Facility,OH,40.0928,-82.0276,PJM,678.3,0.0,678.3,3,0.1821407338424982,0.1401082568019217,82.5759,2914.990175804733,116.1882,4101.529157350213,17.3745,613.3326649727019,27.4212,967.9885851534981
2847,Tait Electric Generating Station,OH,39.727249,-84.211084,PJM,669.8,669.8,0.0,7,0.1940789108020652,0.1492914698477425,34.811099999999996,1228.8575057487249,57.2787,2021.9803572575843,3.4749,122.66653299454038,6.8364,241.3299623482333
62565,"Hill Top Energy Center, LLC",PA,39.894212,-79.938201,PJM,664.7,0.0,664.7,1,0.1801771447726302,0.138597803671254,44.1036,1556.8896096515039,83.77289999999999,2957.245158680345,12.2031,430.77843068453063,21.4713,757.9527266642708
55667,Lower Mount Bethel Energy,PA,40.801924,-75.107563,PJM,651.6,0.0,651.6,3,0.184829252959232,0.1421763484301784,95.6664,3377.094481012086,135.2817,4775.543790211952,29.2518,1032.6101153557502,35.6049,1256.8792312346573
55183,Nelson Energy Center,IL,41.774444,-89.607222,PJM,627.5,0.0,627.5,4,0.200004528815175,0.1538496375501346,241.5924,8528.389912178824,250.1316,8829.829970467403,58.418099999999995,2062.2020176489564,61.7985,2181.5326309427905
55164,Bluegrass Generating Station,KY,38.3902,-85.4133,PJM,624.0,624.0,0.0,3,0.1980963900090113,0.1523818384684702,112.2948,3964.0892656811166,199.1421,7029.863011957771,21.9591,775.1724264526782,43.6959,1542.4974989427428
55231,Liberty Electric Power Plant,PA,39.8614,-75.3358,PJM,614.0,0.0,614.0,3,0.198773419223605,0.1529026301720039,20.5506,725.4513375802474,33.3891,1178.6598569190503,0.7667999999999999,27.068605571444806,2.4345,85.93964562295564
3804,Possum Point,VA,38.5367,-77.2806,PJM,613.0,0.0,613.0,3,0.198615567646835,0.1527812058821808,10.2663,362.40796215196116,66.5586,2349.5676718669356,2.4758999999999998,87.40109615850312,9.405899999999999,332.03520754362637
55188,Cordova Energy,IL,41.712216,-90.279679,PJM,611.2,0.0,611.2,3,0.1982499132857569,0.152499933296736,199.5804,7045.335325236285,214.68869999999998,7578.669458719669,53.355599999999995,1883.4920336825514,56.0124,1977.2790332681209
2411,PSEG Sewaren Generating Station,NJ,40.5558,-74.2469,PJM,609.5,0.0,609.5,2,0.202679408931618,0.1559072376397062,4.9833,175.914165550575,13.0644,461.18295595668167,1.0719,37.838860605153485,3.2256,113.86605911743919
2404,PSEG Kearny Generating Station,NJ,40.737283,-74.096464,PJM,605.0,605.0,0.0,10,0.1919011779096031,0.1476162906996947,1.746,61.63508780352456,2.1582,76.18605183136695,0.9999,35.2972074998535,1.1645999999999999,41.1112389782272
55392,Zion Energy Center,IL,42.4776,-87.895,PJM,596.7,596.7,0.0,3,0.1991517499042977,0.1531936537725367,83.1726,2936.0541259149068,114.4557,4040.3706295039324,26.6544,940.9199795820533,34.3341,1212.0190539261125
7872,Robert P Mone Plant,OH,40.9297,-84.7392,PJM,596.7,596.7,0.0,3,0.1902640144850924,0.1463569342193019,285.9723,10095.033115621918,293.4126,10357.681193390854,70.2432,2479.6367695306626,72.0441,2543.209867826978
7836,Marsh Run Generation Facility,VA,38.5283,-77.7681,PJM,596.7,596.7,0.0,3,0.201086876208691,0.1546822124682239,119.51729999999999,4219.048842806521,202.4271,7145.825934887082,32.4495,1145.4912838948856,46.908899999999996,1655.9187687667543
7158,Woodsdale,OH,39.4492,-84.4611,PJM,571.8,571.8,0.0,6,0.1937939839588381,0.1490722953529524,104.51429999999999,3689.431876989637,136.8432,4830.665891933146,29.9898,1058.6620596850748,39.1113,1380.6577374627664
55247,"Darby Power, LLC",OH,39.7139,-83.1778,PJM,564.0,564.0,0.0,6,0.18905063310598,0.1454235639276769,262.4454,9264.516192801331,282.1491,9960.071335730487,69.1542,2441.1942663130003,72.3456,2553.853040205422
56807,Bear Garden,VA,37.695556,-78.285278,PJM,559.0,0.0,559.0,3,0.1970424247512121,0.1515710959624709,61.736399999999996,2179.340455139469,186.0327,6567.091522810278,15.318,540.7366981525712,42.8085,1511.1716244199206
55710,Allegheny Energy Units 3 4 & 5,PA,40.545278,-79.768611,PJM,556.0,0.0,556.0,3,0.1752978282469134,0.1348444832668565,6.7905,239.70965849360454,27.0072,953.3740797980232,1.2366,43.652892083527185,5.4666,192.97501201990113
7837,Louisa Generation Facility,VA,38.1181,-78.2139,PJM,545.7,545.7,0.0,5,0.2039380882796476,0.1568754525228058,58.1202,2051.685927925778,149.7663,5286.860853670676,18.1125,639.3846093020268,44.8551,1583.4181139380726
59326,Middletown Energy Center,OH,39.465,-84.347778,PJM,543.9,0.0,543.9,2,0.195233523273318,0.1501796332871676,111.1005,3921.929594796953,149.5386,5278.822875725165,22.3308,788.2937106087894,28.604699999999998,1009.7670080718665
55438,MRP Elgin LLC,IL,42.000061,-88.244572,PJM,540.0,540.0,0.0,4,0.1932413482114189,0.1486471909318606,35.1396,1240.4537980416562,57.728699999999996,2037.8656891657092,10.5687,373.0829051942211,15.4854,546.6460416223936
61035,Birdsboro Power,PA,40.268522,-75.799669,PJM,525.0,0.0,525.0,1,0.1923324536871352,0.1479480412977963,58.369499999999995,2060.486401802879,106.09559999999999,3745.252933314788,12.7386,449.6819756551993,29.2671,1033.1502166406265
61322,Long Ridge Energy Generation,OH,39.70257,-80.84552,PJM,521.9,0.0,521.9,1,0.1784436647420925,0.1372643574939173,5.4027,190.71929488894742,16.3512,577.2094202136259,0.9801,34.598252895896,2.8728,101.41195890146928
55276,Ceredo Generating Station,WV,38.3681,-82.5339,PJM,519.0,519.0,0.0,6,0.1814534625749063,0.1395795865960818,9.5724,337.9127803496326,24.6303,869.4677566593075,2.295,81.01519273143693,6.4467,227.57326491579713
2393,Gilbert,NJ,40.565833,-75.163889,PJM,512.0,161.0,351.0,6,0.1918261385377326,0.1475585681059482,67.8258,2394.3007665202153,133.6275,4717.149310117685,12.019499999999999,424.2972152660157,29.4372,1039.1548721018976
1571,Chalk Point Power,MD,38.5444,-76.6861,PJM,456.0,456.0,0.0,4,0.204034305562555,0.15694946581735,43.4133,1532.5215105044404,116.3043,4105.627572982509,12.3273,435.16278229117313,24.3891,860.9532187565526
3797,Chesterfield,VA,37.3822,-77.3833,PJM,446.6,0.0,446.6,4,0.2024197138903424,0.1557074722233403,41.6421,1469.9968441140609,115.6185,4081.418327154527,11.3085,399.19839085117843,27.1134,957.1230181283406
2880,Richland (OH),OH,41.305203,-84.334622,PJM,435.0,435.0,0.0,5,0.1912176899299345,0.1470905307153342,215.4996,7607.294826818111,245.5803,8669.165723548627,42.765299999999996,1509.6466325567403,49.8717,1760.5077940498486
10308,Sayreville Cogeneration Facility,NJ,40.439,-74.3444,PJM,430.2000000000001,0.0,430.2000000000001,3,0.19937810407482,0.1533677723652462,11.4498,404.1863850703296,34.7103,1225.2991914013048,3.5433,125.08110344457536,10.7829,380.6443231824885
2869,West Lorain,OH,41.429444,-82.264444,PJM,425.0,425.0,0.0,5,0.1893931015502601,0.1456870011925078,41.2875,1457.4792025704585,85.6728,3024.313029996448,6.2684999999999995,221.28267348017965,19.0962,674.1099448531877
10633,Hopewell Cogeneration,VA,37.291667,-77.281111,PJM,399.0,0.0,399.0,4,0.2052216770949176,0.157862828534552,41.643,1470.028614777877,120.9735,4270.453776861214,5.0949,179.85372786378997,19.0395,672.108393032764
55938,NAEA Ocean Peaking Power LLC,NJ,40.0633,-74.1672,PJM,383.0,383.0,0.0,2,0.2043232975499462,0.1571717673461125,9.5346,336.5784124693501,43.4646,1534.3324383419665,1.6047,56.647093584373344,8.0586,284.4745238107005
55349,Pleasants Energy LLC,WV,39.3325,-81.3642,PJM,382.8,382.8,0.0,2,0.1827270888468907,0.1405592991129929,21.7161,766.5943472222908,51.336,1812.198664078887,9.2997,328.2862692133089,17.8884,631.4737140117805
60387,Invenergy Nelson Expansion LLC,IL,41.774417,-89.606528,PJM,380.0,380.0,0.0,2,0.2000045463687947,0.153849651052919,241.7706,8534.680503614441,250.3071,8836.02524991157,58.6125,2069.0644810332665,61.986599999999996,2188.172699680387
55109,MRP Rocky Road LLC,IL,42.0931,-88.2397,PJM,374.0,374.0,0.0,3,0.1957741579616541,0.1505955061243493,38.357099999999996,1354.033921184749,77.4522,2734.119786698823,11.5659,408.28480070262583,22.5288,795.2832566483644
7212,Darbytown,VA,37.498223,-77.368544,PJM,368.4,368.4,0.0,4,0.2077206967819128,0.1597851513707022,31.505399999999998,1112.1638575516395,101.0196,3566.0663893911396,12.1959,430.52426537400066,26.537399999999998,936.7897932859407
7032,Gravel Neck,VA,37.1575,-76.6911,PJM,367.6,367.6,0.0,4,0.2043996521766565,0.1572305016743512,35.0064,1235.751739796851,84.6108,2986.8236466932735,3.4254,120.91914648464663,11.5542,407.8717820730146
57349,Garrison Energy Center LLC,DE,39.187195,-75.499396,PJM,361.0,0.0,361.0,2,0.2072865521316146,0.1594511939473959,82.16369999999999,2900.4392117768903,88.6158,3128.203100675585,30.672,1082.7442228577922,32.2965,1140.0902710461232
55253,Crete Energy Venture LLC,IL,41.429444,-87.6187,PJM,356.0,356.0,0.0,4,0.1964861444194333,0.1511431880149487,146.7477,5180.3020472309745,178.7139,6308.732484656533,33.5106,1182.9488965342439,44.4096,1567.6916353490287
55284,Big Sandy Peaker Plant,WV,38.3441,-82.5938,PJM,353.4,353.4,0.0,6,0.1828515018610917,0.140655001431609,12.4614,439.89661119979434,28.7658,1015.4539568949752,2.9169,102.96872142846551,6.5358,230.71856063360585
55250,University Park South,IL,41.440893,-87.753189,PJM,353.4,353.4,0.0,6,0.1945445100291397,0.1496496230993382,162.7146,5743.945393995061,179.298,6329.35164547328,38.6946,1365.9479201158429,42.8112,1511.2669364113692
3096,Brunot Island,PA,40.464851,-80.043761,PJM,339.9,0.0,339.9,4,0.1759306732259982,0.1353312870969217,0.9944999999999999,35.106583516956,6.471,228.4310728388359,0.10439999999999999,3.6853970026849736,1.2564,44.35184668748468
1556,Perryman,MD,39.442836,-76.221761,PJM,333.0,333.0,0.0,2,0.2024488528840521,0.1557298868338862,22.9509,810.1836979781855,88.04339999999999,3107.99695848845,6.3557999999999995,224.36442787035588,22.4712,793.2499341641244
1572,Dickerson Power,MD,39.2097,-77.4644,PJM,326.0,326.0,0.0,2,0.2003189946335933,0.1540915343335333,124.0578,4379.331841759501,170.35829999999999,6013.773641786471,29.384999999999998,1037.312173600555,41.1003,1450.8709044966783
55238,NRG Rockford I,IL,42.238558,-89.101202,PJM,316.0,316.0,0.0,2,0.2003678326561334,0.1541291020431796,99.3141,3505.860981459346,127.2303,4491.323431711782,15.0705,531.9997656031024,19.0449,672.2990170156614
55296,Calumet Energy Team LLC,IL,41.6835,-87.5563,PJM,312.8,312.8,0.0,2,0.1946628188391045,0.1497406298762343,4.8627,171.65689659919752,6.6438,234.53104029155583,2.8836,101.79320686726427,3.6099,127.43213256697784
58933,Shell Chemical Appalachia LLC,PA,40.671667,-80.336389,PJM,309.8,0.0,309.8,5,0.1751569280335954,0.1347360984873811,13.5963,479.9594182720853,41.6943,1471.8395426154032,2.0052,70.78503898260449,7.5348,265.9839974696431
54844,Gordonsville Energy LP,VA,38.124688,-78.203543,PJM,300.4,0.0,300.4,4,0.2039352356601055,0.1568732582000812,57.7728,2039.4224516927054,152.4681,5382.236386447058,18.3906,649.2017444212479,46.3149,1634.9501306480297
55233,Handsome Lake Energy LLC,PA,41.2908,-79.8061,PJM,294.5,294.5,0.0,5,0.1725577338179287,0.1327367183214836,28.1727,994.5170894400667,147.9645,5223.255984710544,5.409,190.94168953566114,30.2085,1066.3823309924237
54832,Brandywine Power Facility,MD,38.6681,-76.8678,PJM,288.8,0.0,288.8,3,0.2043434318939261,0.1571872553030201,43.0164,1518.510647761474,140.8851,4973.347943131923,11.1168,392.4312394583172,40.8168,1440.8631453945598
55285,Wolf Hills Energy,VA,36.6644,-82.1044,PJM,285.0,285.0,0.0,5,0.1987201884572627,0.1528616834286636,50.024699999999996,1765.9088068986111,62.632799999999996,2210.984036300454,16.2054,572.0625726753934,19.2231,678.5896084512789
50561,Eagle Point Power Generation,NJ,39.8746,-75.1592,PJM,251.8,0.0,251.8,4,0.1988892742756389,0.1529917494427992,9.485999999999999,334.8627966232726,23.0418,813.3925350236267,2.9691,104.81141992980801,5.1687,182.45892229672245
2399,PSEG Burlington Generating Station,NJ,40.076611,-74.879172,PJM,242.0,242.0,0.0,4,0.2003549539010784,0.1541191953085219,26.607599999999998,939.2679050636083,50.9148,1797.3299934128822,2.7792,98.1078098645793,8.5239,300.89995700370156
55228,Greenville Electric Generating Station,OH,40.075783,-84.615136,PJM,236.0,236.0,0.0,4,0.1960528865739861,0.1508099127492201,248.87879999999998,8785.605206435182,268.2963,9471.057278270771,53.1189,1875.1363490988779,58.266,2056.8327754640104
5083,Cumberland (NJ),NJ,39.3757,-74.9654,PJM,231.2,231.2,0.0,2,0.2032420104360043,0.1563400080276956,31.3848,1107.906588600262,82.4769,2911.495402784946,4.7691,168.35274756230754,13.6998,483.61304461095403
55216,Morris Cogeneration LLC,IL,41.411944,-88.332778,PJM,218.8,0.0,218.8,4,0.1962955471673033,0.1509965747440795,167.35049999999998,5907.596083312564,184.689,6519.657921732616,45.1656,1594.3789929546786,49.4892,1747.0052619279425
52193,Delaware City Plant,DE,39.5871,-75.6343,PJM,184.0,184.0,0.0,2,0.2007645165604127,0.1544342435080098,42.6591,1505.897694226423,56.163599999999995,1982.6165047892507,11.377799999999999,401.6447319650296,15.7671,556.5902593968798
10751,Camden Plant Holding LLC,NJ,39.9175,-75.1192,PJM,172.9,0.0,172.9,2,0.2007922788838844,0.1544555991414496,4.41,155.6762526996239,11.3814,401.7718146202946,0.7415999999999999,26.17902698458981,1.2528,44.22476403221968
7336,Anderson,IN,40.0529,-85.7389,PJM,168.7,168.7,0.0,3,0.1982610602717486,0.1525085079013451,200.2779,7069.957589693878,217.7316,7686.08607308241,54.6588,1929.4959548884813,57.4317,2027.3813701063468
55936,NRG Rockford II Energy Center,IL,42.2383,-89.1011,PJM,168.0,168.0,0.0,1,0.2003679982527956,0.1541292294252274,99.3825,3508.275551909381,127.2735,4492.848423574962,15.1119,533.46121613865,19.0998,674.2370275084527
2831,Dick's Creek,OH,39.465,-84.3778,PJM,159.1,159.1,0.0,4,0.1943999704482183,0.1495384388063217,103.3083,3646.859187475863,138.8988,4903.23008808946,17.493299999999998,617.5263925964467,23.0661,814.2503429466655
3176,Hunlock Power Station,PA,41.200556,-76.07,PJM,145.9,0.0,145.9,3,0.1808836309966998,0.139141254612846,19.9701,704.9592594187662,83.3904,2943.742626558439,2.2833,80.60217410182568,15.1119,533.46121613865
54785,Grays Ferry Cogeneration,PA,39.942219,-75.188069,PJM,135.0,135.0,0.0,1,0.2023095793875026,0.155622753375002,3.3336,117.67853877538917,6.7725,239.07424521727955,0.3564,12.58118287123491,0.5265,18.585838332506118
2854,Yankee Street,OH,39.603,-84.2047,PJM,125.5,125.5,0.0,7,0.1933118873946449,0.1487014518420346,65.2824,2304.5168705754936,103.5846,3656.6127812674513,9.116999999999999,321.8368244586102,15.4908,546.8366656052912
10030,Energy Center Dover,DE,39.149549,-75.547335,PJM,118.0,50.0,68.0,3,0.2102963326756849,0.1617664097505269,118.61999999999999,4187.373490981719,131.1606,4630.065920597344,17.9595,633.9835964532642,21.0501,743.084055998266
50463,Procter & Gamble Mehoopany Mill,PA,41.574259,-76.043233,PJM,117.6,117.6,0.0,2,0.1762752592472579,0.1355963532671215,47.5929,1680.0644732671044,86.8527,3065.9643702595517,14.4522,510.1733195613389,22.3785,789.9775557910506
7288,Sherman Avenue,NJ,39.451,-75.0578,PJM,112.8,112.8,0.0,1,0.203280631861676,0.1563697168166739,72.4725,2558.332703803513,135.5796,4786.059879935131,12.0267,424.55138057654574,25.5501,901.9373750795148
7962,Warren F Sam Beasley Generation Station,DE,39.279179,-75.623928,PJM,96.0,96.0,0.0,2,0.2116248381187951,0.1627883370144578,147.2922,5199.523298839806,162.2961,5729.1720353205055,35.541,1254.6235141037034,37.201499999999996,1313.2403888446843
55738,Buchanan Generation LLC,VA,37.175278,-81.961388,PJM,88.0,88.0,0.0,2,0.1907902512304145,0.1467617317157035,3.5172,124.1597541939041,10.7766,380.4219285357748,0.8406,29.673800004377288,2.4398999999999997,86.13026960585313
55377,Gans,PA,39.7475,-79.838888,PJM,87.6,87.6,0.0,2,0.1727873239646369,0.1329133261266438,37.5669,1326.1392783540816,78.1191,2757.6618485866643,15.8895,560.9110696758897,29.8359,1053.2292761724962
55654,Chambersburg,PA,39.866944,-77.685833,PJM,87.6,87.6,0.0,2,0.1915156943408151,0.14731976487755,185.6619,6554.002009317982,207.3537,7319.738548617234,50.174099999999996,1771.1827370921085,56.5659,1996.8179915151145
55196,Springdale 1 & 2,PA,40.546667,-79.768333,PJM,87.6,87.6,0.0,2,0.1752970412502442,0.1348438778848033,6.8814,242.91849553904578,27.2268,961.1261217691882,1.1808,41.6831109269197,5.3450999999999995,188.6859724047074
7335,Richmond,IN,39.839572,-84.965682,PJM,82.8,82.8,0.0,2,0.200455703864384,0.1541966952802954,184.716,6520.611041647104,230.7852,8146.887781073297,45.1521,1593.9024329974347,54.5328,1925.0480619542063
7138,Forked River,NJ,39.8154,-74.2098,PJM,76.8,76.8,0.0,2,0.2052104256546861,0.1578541735805277,6.4152,226.46129168222836,54.6633,1929.6548082075626,1.9494,68.81525782599701,8.1783,288.7000220982617
58235,Clayville,NJ,39.424444,-75.02,PJM,73.0,73.0,0.0,1,0.2024066117959858,0.1556973936892199,54.1845,1912.7528150573175,108.5373,3831.446744248274,11.0655,390.62031162079097,26.6616,941.1741448925833
52149,West Point (PA),PA,40.217963,-75.298823,PJM,70.69999999999999,70.69999999999999,0.0,2,0.1989123460720355,0.1530094969784889,52.4763,1852.4520951340755,98.7975,3487.624620428819,8.6355,304.8395193169166,18.0441,636.9700388519917
50410,Chester Operations,PA,39.843743,-75.358801,PJM,69.2,0.0,69.2,4,0.1987822566686819,0.1529094282066784,25.884,913.7242913553436,39.7161,1402.0076235472861,1.9035,67.19495397136826,3.8897999999999997,137.31280901383153
2434,Howard Down,NJ,39.4889,-75.0347,PJM,68.2,68.2,0.0,1,0.2039969442675382,0.1569207263596448,83.871,2960.708161036316,142.9848,5047.468901815234,10.3176,364.2188899894874,22.256999999999998,785.6885161758569
50279,Archbald Power Station,PA,41.485,-75.5406,PJM,60.5,60.5,0.0,1,0.1722640396870807,0.1325107997592929,23.1147,815.9659587927429,90.12689999999999,3181.546045223068,2.9088,102.68278545411927,14.2254,502.16711227964396
3110,Hunterstown,PA,39.8662,-77.1648,PJM,60.0,60.0,0.0,3,0.1950027171462389,0.1500020901124915,170.0073,6001.383082898133,219.1986,7737.872255102898,47.286,1669.2306769057632,61.1325,2158.022339718766
3132,Warren,PA,41.835947,-79.188668,PJM,53.1,53.1,0.0,1,0.1720934077288038,0.1323795444067722,13.298399999999999,469.4433285489066,44.3898,1566.9926807450713,2.8935,102.14268416924303,8.8551,312.59156128808155
55262,Bowling Green Generating Station,OH,41.397369,-83.641236,PJM,49.5,49.5,0.0,2,0.1955322326065075,0.1504094096973135,252.09269999999998,8899.05824692301,261.2115,9220.958612709253,48.495599999999996,1711.9304490748027,50.4828,1782.0800747810822
55264,Napoleon Peaking Station,OH,41.4079,-84.1095,PJM,49.5,49.5,0.0,2,0.1925597086662859,0.1481228528202199,253.9332,8964.029254427242,267.0165,9425.879394324065,55.135799999999996,1946.3344067110936,57.4218,2027.031892804368
55263,Galion Generating Station,OH,40.7167,-82.789,PJM,49.5,49.5,0.0,2,0.1844045011327477,0.1418496162559598,208.2438,7351.159735131505,264.1311,9324.022646129168,45.7083,1613.5367032358772,58.317299999999996,2058.6437033015363
57908,Central Utility Plant Cincinnati,OH,39.134533,-84.509419,PJM,45.3,0.0,45.3,3,0.1894714218031236,0.1457472475408643,4.2741,150.87888246337016,15.614099999999999,551.1892465481172,0.39599999999999996,13.979092079149899,1.3005,45.908609214480926
7318,Van Sant Station,DE,39.145036,-75.548172,PJM,45.1,45.1,0.0,1,0.2102986707286875,0.1617682082528365,116.2107,4102.32342394562,129.0375,4555.118924654811,19.3041,681.4489681947414,22.3965,790.6129690673756
56397,Hunlock Unit 4,PA,41.2025,-76.068333,PJM,44.0,44.0,0.0,1,0.1808825428133934,0.1391404175487642,20.2275,714.0456692702137,83.15729999999999,2935.5140246300302,2.2608,79.80790750641944,15.524099999999999,548.0121801664923
58207,Central Utility Plant at White Oak,MD,39.039444,-76.9825,PJM,41.7,17.2,24.5,8,0.2065444997896154,0.1588803844535503,16.0623,567.0110371286097,44.1459,1558.3828308508675,2.214,78.15583298797445,7.7508,273.60895678554306
2903,Bryan (OH),OH,41.471822,-84.543148,PJM,36.8,36.8,0.0,3,0.1958536800213546,0.1506566769395035,241.1046,8511.170212390418,257.5512,9091.747322968566,53.1585,1876.5342583067927,56.568599999999996,1996.9133035065631
2848,O H Hutchings,OH,39.6088,-84.2921,PJM,32.6,32.6,0.0,1,0.1896263492637645,0.1458664225105881,102.5442,3619.885893895867,143.3718,5061.130287256222,26.5401,936.8851052773896,35.4969,1253.0667515767072
2909,West 41st Street,OH,41.474,-81.7145,PJM,32.0,32.0,0.0,2,0.1852843612195979,0.142526431707383,4.0716,143.73048310471398,8.478,299.2796531490729,1.3851,48.8950516132084,1.9926,70.340249689177
7782,Hamilton Peaking,OH,39.3528,-84.5183,PJM,32.0,32.0,0.0,1,0.1948436642077308,0.1498797416982545,40.1076,1415.827862307355,64.31309999999999,2270.2998656453924,9.7524,344.26691311288255,12.8331,453.0178953559055
7783,Bowling Green Peaking,OH,41.3884,-83.6402,PJM,32.0,32.0,0.0,1,0.1946645699562236,0.1497419768894028,251.775,8887.843202595874,261.27,9223.02370585731,45.8217,1617.5398068767247,48.4002,1708.5627587102804
50628,Paulsboro Refinery,NJ,39.84,-75.2583,PJM,30.5,30.5,0.0,1,0.1979752027575684,0.1522886175058219,42.655499999999996,1505.7706115711578,52.3899,1849.4021114077154,6.2667,221.2191321525472,7.4258999999999995,262.13974714787685
10805,Kenilworth Energy Facility,NJ,40.6781,-74.2744,PJM,28.8,0.0,28.8,2,0.1957050497358967,0.1505423459506898,1.5183,53.59710985801337,8.559899999999999,302.1707835563516,0.0783,2.76404775201373,1.2519,44.192993368403435
56668,NIH Cogeneration Facility,MD,39.0,-77.0939,PJM,28.0,28.0,0.0,1,0.2018840361234125,0.155295412402625,1.2555,44.320076023668435,22.2075,783.9411296659631,0.1908,6.735380729044952,4.7619,168.09858225177754
55990,Ashtabula,OH,41.890026,-80.7612,PJM,26.1,0.0,26.1,7,0.1780922964749951,0.1369940742115347,36.5787,1291.2550894838396,117.8784,4161.194463997131,6.4548,227.85920089014337,26.3025,928.4976500298995
3120,Blossburg,PA,41.706475,-77.08184,PJM,24.0,24.0,0.0,1,0.1803716864000464,0.1387474510769588,36.5022,1288.5545830594583,86.0004,3035.8775516255632,7.0434,248.63721502597073,19.98,705.308736720745
54044,University of Illinois Cogen Facility,IL,41.8675,-87.6524,PJM,23.4,23.4,0.0,3,0.1940798870054287,0.1492922207734067,3.0357,107.16244905221048,3.1824,112.3410672542592,0.8226,29.038386728052295,0.8261999999999999,29.16546938331729
56038,UMCP CHP Plant,MD,38.985844,-76.935478,PJM,22.0,22.0,0.0,2,0.203748959601778,0.1567299689244446,10.6983,377.6578807837611,37.8855,1337.3860933450342,2.0925,73.86679337278072,5.5053,194.34115056399986
2914,Dover (OH),OH,40.520066,-81.46815,PJM,19.5,19.5,0.0,1,0.181198358891799,0.1393833529936916,50.9157,1797.3617640766986,81.3132,2870.4159344705345,10.6542,376.1011182567648,15.552,548.9970707447961
2917,Hamilton (OH),OH,39.4098,-84.5543,PJM,16.3,16.3,0.0,1,0.1943304077208572,0.149484929016044,108.03059999999999,3813.559860519725,143.8479,5077.936968415018,11.8584,418.610266442907,19.0656,673.0297422834352
58584,Princeton University Cogeneration,NJ,40.341389,-74.657222,PJM,15.5,15.5,0.0,1,0.201362743485394,0.1548944180656877,50.1588,1770.6426358072324,100.6785,3554.025307804781,6.4008,225.9529610611684,21.4812,758.3022039662496
59860,HP Hood CT,VA,39.132519,-78.187474,PJM,15.0,15.0,0.0,1,0.1938280626653361,0.1490985097425662,120.37769999999999,4249.421597414856,165.339,5836.588649683246,27.0495,954.8673009973869,36.909,1302.9149231044032
58140,Summit Street Power Plant,OH,41.143056,-81.340833,PJM,13.2,13.2,0.0,2,0.176304101283737,0.1356185394490285,56.5821,1997.389863463807,127.90259999999999,4515.0561175825205,10.9602,386.90314395428976,27.6111,974.6921952187269
58328,North Chicago Energy Center,IL,42.306389,-87.851944,PJM,12.4,12.4,0.0,2,0.1960028994972799,0.1507714611517538,10.1556,358.5001705025624,24.561899999999998,867.0531862092726,1.5201,53.66065118564587,4.4595,157.42363920951763
10061,"Mars Wrigley Confectionery US, LLC",NJ,40.8625,-74.825,PJM,12.3,0.0,12.3,2,0.1857500825550224,0.1428846788884788,41.3613,1460.084397003391,84.7089,2990.286649049245,7.4952,264.5860882617281,18.7668,662.4818818964403
50366,University of Notre Dame,IN,41.7094,-86.2367,PJM,10.8,10.8,0.0,2,0.1917205546105639,0.1474773497004338,41.4693,1463.8968766613407,69.6069,2457.1749102125736,1.8954,66.90901799702202,4.0293,142.23726190535024
57788,US GSA Heating and Transmission,DC,38.885709,-77.028373,PJM,10.8,10.8,0.0,2,0.2072411834619143,0.1594162949707033,1.5191999999999999,53.628880521829615,7.7589,273.8948927598893,0.29159999999999997,10.293695076464926,0.4653,16.425433193001133
58181,Loyola University Health Plant,IL,41.855833,-87.835556,PJM,10.6,10.6,0.0,2,0.19671860655227,0.1513220050402076,3.024,106.74943042259925,5.3433,188.6224310770749,0.2349,8.292143256041191,0.8568,30.245671953069785
10123,Hoffmann LaRoche,NJ,40.8359,-74.155,PJM,10.6,10.6,0.0,2,0.1939603177470696,0.1492002444208228,1.4796,52.23097131391463,5.085,179.50425056181123,0.1098,3.876020985582472,0.36,12.70826552649991
50411,Rutgers Biomedical and Health Cogen,NJ,40.73928,-74.187633,PJM,10.5,10.5,0.0,3,0.1946674542743521,0.1497441955956555,1.7568,62.016335769319554,3.987,140.7440407059865,0.0531,1.8744691651587366,0.1476,5.210388865864963
58947,Bristol Myers Squibb Lawrenceville,NJ,40.324722,-74.707778,PJM,9.9,9.9,0.0,2,0.1954174102123327,0.1503210847787175,45.4626,1604.8633120140412,96.2217,3396.696980586712,12.7098,448.6653144130793,28.2537,997.3764491835291
54829,Bristol Myers Squibb New Brunswick,NJ,40.475724,-74.446199,PJM,9.5,9.5,0.0,1,0.1957732094971433,0.1505947765362641,13.6602,482.2151354030391,33.8256,1194.0686288699314,2.2509,79.45843020444069,6.8111999999999995,240.44038376137826
61282,APG Combined Heat and Power Plant,MD,39.3975,-76.2991,PJM,7.9,7.9,0.0,1,0.2029492163905849,0.1561147818389115,19.134,675.4443127334702,71.5158,2524.5604881668396,2.6793,94.58126618097558,17.198999999999998,607.1373855285331
62492,"DTE Atlantic, LLC",NJ,39.3733,-74.4369,PJM,7.5,7.5,0.0,1,0.2106756500179092,0.1620581923214686,1.9323,68.21161521348826,5.1066,180.26674649340123,0.8226,29.038386728052295,0.8316,29.35609336621479
63347,"AOC, Capitol Power Plant",DC,38.882704,-77.007443,PJM,7.5,7.5,0.0,1,0.2072427345666292,0.1594174881281763,1.5381,54.296064461970865,8.7012,307.1587777755028,0.19619999999999999,6.926004711942451,0.369,13.025972164662408
58195,East Campus Steam Plant,PA,40.809167,-77.8475,PJM,7.0,7.0,0.0,1,0.1753776920958195,0.1349059169967842,75.087,2650.626482189719,113.02199999999999,3989.7599620446463,16.5708,584.9614621847908,23.819399999999998,840.8423885608664
63501,Montclair State University Cogen,NJ,40.865207,-74.196651,PJM,6.4,6.4,0.0,1,0.1908043321785493,0.1467725632142687,0.9828,34.693564887344756,7.3934999999999995,260.99600325049187,0.3969,14.01086274296615,2.2572,79.68082485115444
60742,Argonne National Laboratory CHP,IL,41.716534,-87.970608,PJM,6.3,6.3,0.0,1,0.191343997219417,0.1471876901687823,9.8496,347.69814480503754,33.0606,1167.0635646261192,1.6677,58.87104005151083,6.507,229.70189939148585
58194,West Campus Steam Plant,PA,40.792778,-77.864722,PJM,6.1,6.1,0.0,1,0.1753863306338625,0.1349125620260481,71.36189999999999,2519.1277046542605,108.306,3823.2816836474976,19.4364,686.11925577573,27.3177,964.3349588146293
54333,Bucknell University,PA,40.955015,-76.878843,PJM,5.9,0.0,5.9,2,0.1827808710134149,0.1406006700103192,131.9004,4656.181406254302,161.9163,5715.7648151900485,28.6542,1011.5143945817603,35.1126,1239.5006781271686
63485,ECP Uptown Campus,PA,40.43727,-79.98741,PJM,5.6,5.6,0.0,1,0.1752712581340049,0.1348240447184653,0.5085,17.95042505618112,3.3678,118.88582400040666,0.055799999999999995,1.9697811566074859,0.297,10.484319059362425
63483,ACM - Midtown Thermal,NJ,39.359831,-74.434228,PJM,5.5,5.5,0.0,1,0.2106835762439643,0.1620642894184341,1.5228,53.755963177094614,1.9529999999999998,68.94234048126201,0.7919999999999999,27.958184158299797,0.8009999999999999,28.275890796462296
58136,Adkins Energy LLC,IL,42.362222,-89.803611,PJM,5.0,5.0,0.0,1,0.1951372991524336,0.1501056147326412,253.3284,8942.67936834272,275.0391,9709.083091582115,58.7457,2073.7665392780714,64.098,2262.706676993309
10122,CIP II/AR Bridgewater Holdings - NJCOE,NJ,40.624,-74.634,PJM,5.0,5.0,0.0,1,0.190974910284278,0.1469037771417523,45.4302,1603.719568116656,109.32209999999999,3859.1507630960436,8.1891,289.0812700640567,24.1272,851.7079555860239
59373,Broshco Fabricated Products,OH,40.776111,-82.568611,PJM,4.7,4.7,0.0,4,0.1872563441339416,0.1440433416414936,105.8274,3735.7852754975456,188.8749,6667.423279141994,16.4007,578.9568067235197,36.6057,1292.208209398327
54933,Mondelez Global LLC,IL,42.3156,-89.0356,PJM,4.7,4.7,0.0,1,0.1995892769003921,0.1535302130003016,80.2494,2832.863009839727,102.2535,3609.623969483218,2.4696,87.17870151178937,6.3198,223.09360131770592
61822,"Princeton Energy Center, LLC",NJ,40.339838,-74.62393,PJM,4.6,4.6,0.0,1,0.2016010913697263,0.1550777625920972,50.591699999999996,1785.9243251028483,98.604,3480.793927708325,7.6248,269.16106385126807,16.392599999999998,578.6708707491733
63478,Ross Hall Central Utility Plant,DC,38.900216,-77.050788,PJM,4.6,4.6,0.0,1,0.2026858190693181,0.1559121685148601,1.1124,39.26854047688472,8.676,306.2691991886478,0.3492,12.327017560704913,0.9854999999999999,34.7888768787935
54790,CSL Behring LLC,IL,41.1603,-87.8542,PJM,4.2,4.2,0.0,1,0.1979576099209687,0.1522750845545913,210.7953,7441.229567050573,215.5446,7608.883360008924,31.4685,1110.8612603351733,32.143499999999996,1134.6892581973605
50326,Nalco,IL,41.800909,-88.197156,PJM,4.0,0.0,4.0,1,0.1925538844446107,0.1481183726497006,28.095299999999998,991.7848123518692,39.4407,1392.2858004195139,7.749899999999999,273.57718612172675,11.571299999999999,408.4754246855233
63492,DCO Burlington,NJ,40.108316,-74.826404,PJM,3.5,3.5,0.0,1,0.2003215483971399,0.1540934987670307,38.695499999999996,1365.9796907796588,62.847899999999996,2218.577224952538,5.6655,199.99632872329232,11.024099999999999,389.1588610852434
59794,Chicago West Side Energy Center,IL,41.870751,-87.678378,PJM,3.5,3.5,0.0,1,0.1941339239722524,0.1493337876709634,3.033,107.06713706076174,3.1572,111.4514886674042,0.8001,28.24412013264605,0.8090999999999999,28.561826770808544
10302,Juniata Locomotive Shop,PA,40.533299,-78.384125,PJM,1.5,1.5,0.0,1,0.1749612139237193,0.1345855491720917,16.0002,564.8188613252885,56.862899999999996,2007.302310574477,2.331,82.28601928408692,10.2285,361.0735942716787
64241,Maryland Bioenergy Center (Jessup),MD,39.1578,-76.78042,PJM,1.1,1.1,0.0,1,0.2042410490470797,0.1571084992669844,9.8469,347.60283281358875,56.186099999999996,1983.410771384657,2.1734999999999998,76.7261531162432,15.0345,530.7289390504525
62901,Phoenix Contact - CCHP Plant,PA,40.229379,-76.75007,PJM,1.0,1.0,0.0,1,0.1946920513655391,0.1497631164350301,57.3525,2024.585551690517,85.74029999999999,3026.695829782667,12.726899999999999,449.268957025588,17.0073,600.370234135672
